[
  {
    "id": "2024-20240102-000001-102000",
    "date": "2024-01-02",
    "type": "Appartement",
    "adresse": "19 RUE CLEMENT MAROT",
    "codePostal": "29200",
    "prix": 102000,
    "surface": 67,
    "surfaceCarrez": 135.58,
    "pieces": 4,
    "lat": 48.399611,
    "lon": -4.48434,
    "nbLots": 1,
    "prixM2": 752,
    "surfaceAffichee": 135.58
  },
  {
    "id": "2024-20240109-000001-155000",
    "date": "2024-01-09",
    "type": "Appartement",
    "adresse": "6 RUE DU CHATEAU",
    "codePostal": "29200",
    "prix": 155000,
    "surface": 102,
    "surfaceCarrez": 100.68,
    "pieces": 6,
    "lat": 48.383468,
    "lon": -4.491056,
    "nbLots": 1,
    "prixM2": 1540,
    "surfaceAffichee": 100.68
  },
  {
    "id": "2024-20240105-000001-133950",
    "date": "2024-01-05",
    "type": "Appartement",
    "adresse": "3 SQ PROFESSEUR RIEUX",
    "codePostal": "29200",
    "prix": 133950,
    "surface": 64,
    "surfaceCarrez": 131.9,
    "pieces": 4,
    "lat": 48.405583,
    "lon": -4.475167,
    "nbLots": 2,
    "prixM2": 1016,
    "surfaceAffichee": 131.9
  },
  {
    "id": "2024-20240108-000001-59500",
    "date": "2024-01-08",
    "type": "Appartement",
    "adresse": "17 RUE DE KER HEOL",
    "codePostal": "29200",
    "prix": 59500,
    "surface": 44,
    "surfaceCarrez": 45.72,
    "pieces": 2,
    "lat": 48.407591,
    "lon": -4.462884,
    "nbLots": 1,
    "prixM2": 1301,
    "surfaceAffichee": 45.72
  },
  {
    "id": "2024-20240104-000001-154850",
    "date": "2024-01-04",
    "type": "Appartement",
    "adresse": "2 RUE DES DEUX FRERES GUEZENEC",
    "codePostal": "29200",
    "prix": 154850,
    "surface": 83,
    "surfaceCarrez": 83.27,
    "pieces": 3,
    "lat": 48.39906,
    "lon": -4.456148,
    "nbLots": 1,
    "prixM2": 1860,
    "surfaceAffichee": 83.27
  },
  {
    "id": "2024-20240105-000001-188090",
    "date": "2024-01-05",
    "type": "Appartement",
    "adresse": "22 RUE JOSEPH LE BRIX",
    "codePostal": "29200",
    "prix": 188090,
    "surface": 96,
    "surfaceCarrez": 187.4,
    "pieces": 4,
    "lat": 48.392934,
    "lon": -4.467153,
    "nbLots": 2,
    "prixM2": 1004,
    "surfaceAffichee": 187.4
  },
  {
    "id": "2024-20240105-000001-175000",
    "date": "2024-01-05",
    "type": "Appartement",
    "adresse": "2 RUE ROCHEFORT",
    "codePostal": "29200",
    "prix": 175000,
    "surface": 63,
    "surfaceCarrez": 122.64,
    "pieces": 4,
    "lat": 48.381557,
    "lon": -4.501035,
    "nbLots": 2,
    "prixM2": 1427,
    "surfaceAffichee": 122.64
  },
  {
    "id": "2024-20240116-000001-120000",
    "date": "2024-01-16",
    "type": "Appartement",
    "adresse": "32 RUE LAENNEC",
    "codePostal": "29200",
    "prix": 120000,
    "surface": 54,
    "surfaceCarrez": 116.64,
    "pieces": 2,
    "lat": 48.393839,
    "lon": -4.472056,
    "nbLots": 1,
    "prixM2": 1029,
    "surfaceAffichee": 116.64
  },
  {
    "id": "2024-20240108-000001-120000",
    "date": "2024-01-08",
    "type": "Appartement",
    "adresse": "19 RUE JOSEPH LE FRAPPER",
    "codePostal": "29200",
    "prix": 120000,
    "surface": 80,
    "surfaceCarrez": 158.86,
    "pieces": 4,
    "lat": 48.406865,
    "lon": -4.491831,
    "nbLots": 2,
    "prixM2": 755,
    "surfaceAffichee": 158.86
  },
  {
    "id": "2024-20240112-000001-153310",
    "date": "2024-01-12",
    "type": "Appartement",
    "adresse": "9 RUE D OUESSANT",
    "codePostal": "29200",
    "prix": 153310,
    "surface": 88,
    "surfaceCarrez": null,
    "pieces": 5,
    "lat": 48.403278,
    "lon": -4.463983,
    "nbLots": 1,
    "prixM2": 1742,
    "surfaceAffichee": 88
  },
  {
    "id": "2024-20240110-000001-22000",
    "date": "2024-01-10",
    "type": "Dépendance",
    "adresse": "30 RUE EDOUARD CORBIERE",
    "codePostal": "29200",
    "prix": 22000,
    "surface": null,
    "surfaceCarrez": 1,
    "pieces": null,
    "lat": 48.39187,
    "lon": -4.473666,
    "nbLots": 1,
    "prixM2": 22000,
    "surfaceAffichee": 1
  },
  {
    "id": "2024-20240110-000001-99000",
    "date": "2024-01-10",
    "type": "Appartement",
    "adresse": "13 RUE HENRI MOISSAN",
    "codePostal": "29200",
    "prix": 99000,
    "surface": 60,
    "surfaceCarrez": null,
    "pieces": 3,
    "lat": 48.38362,
    "lon": -4.50505,
    "nbLots": 2,
    "prixM2": 1650,
    "surfaceAffichee": 60
  },
  {
    "id": "2024-20240115-000001-140000",
    "date": "2024-01-15",
    "type": "Maison",
    "adresse": "10 RUE DE PEN AR RUN",
    "codePostal": "29200",
    "prix": 140000,
    "surface": 103,
    "surfaceCarrez": null,
    "pieces": 3,
    "lat": 48.409396,
    "lon": -4.488965,
    "nbLots": 1,
    "prixM2": 1359,
    "surfaceAffichee": 103
  },
  {
    "id": "2024-20240109-000001-151500",
    "date": "2024-01-09",
    "type": "Appartement",
    "adresse": "27 RUE JOSEPH LE BRIX",
    "codePostal": "29200",
    "prix": 151500,
    "surface": 71,
    "surfaceCarrez": 140.44,
    "pieces": 3,
    "lat": 48.393974,
    "lon": -4.466896,
    "nbLots": 2,
    "prixM2": 1079,
    "surfaceAffichee": 140.44
  },
  {
    "id": "2024-20240105-000001-60400",
    "date": "2024-01-05",
    "type": "Appartement",
    "adresse": "10 RUE DU DUC D AUMALE",
    "codePostal": "29200",
    "prix": 60400,
    "surface": 41,
    "surfaceCarrez": 81.7,
    "pieces": 2,
    "lat": 48.401015,
    "lon": -4.509484,
    "nbLots": 2,
    "prixM2": 739,
    "surfaceAffichee": 81.7
  },
  {
    "id": "2024-20240104-000001-530000",
    "date": "2024-01-04",
    "type": "Maison",
    "adresse": "14 RUE DE KERMARIA",
    "codePostal": "29200",
    "prix": 530000,
    "surface": 278,
    "surfaceCarrez": null,
    "pieces": 10,
    "lat": 48.417293,
    "lon": -4.490794,
    "nbLots": 1,
    "prixM2": 1906,
    "surfaceAffichee": 278
  },
  {
    "id": "2024-20240105-000001-198500",
    "date": "2024-01-05",
    "type": "Maison",
    "adresse": "113 RUE DE BOHARS",
    "codePostal": "29200",
    "prix": 198500,
    "surface": 104,
    "surfaceCarrez": null,
    "pieces": 7,
    "lat": 48.421775,
    "lon": -4.497913,
    "nbLots": 1,
    "prixM2": 1909,
    "surfaceAffichee": 104
  },
  {
    "id": "2024-20240104-000001-122450",
    "date": "2024-01-04",
    "type": "Appartement",
    "adresse": "26 RUE DE VALMY",
    "codePostal": "29200",
    "prix": 122450,
    "surface": 68,
    "surfaceCarrez": 139.62,
    "pieces": 4,
    "lat": 48.400326,
    "lon": -4.466858,
    "nbLots": 1,
    "prixM2": 877,
    "surfaceAffichee": 139.62
  },
  {
    "id": "2024-20240110-000001-12500",
    "date": "2024-01-10",
    "type": "Dépendance",
    "adresse": "5 RUE CLEMENT MAROT",
    "codePostal": "29200",
    "prix": 12500,
    "surface": null,
    "surfaceCarrez": null,
    "pieces": null,
    "lat": 48.40017,
    "lon": -4.484876,
    "nbLots": 1,
    "prixM2": null,
    "surfaceAffichee": null
  },
  {
    "id": "2024-20240110-000001-123050",
    "date": "2024-01-10",
    "type": "Appartement",
    "adresse": "38 RUE PAUL BERT",
    "codePostal": "29200",
    "prix": 123050,
    "surface": 64,
    "surfaceCarrez": 60.73,
    "pieces": 3,
    "lat": 48.379766,
    "lon": -4.514105,
    "nbLots": 1,
    "prixM2": 2026,
    "surfaceAffichee": 60.73
  },
  {
    "id": "2024-20240111-000001-195000",
    "date": "2024-01-11",
    "type": "Maison",
    "adresse": "105 RUE CAPITAINE ALFRED DREYFUS",
    "codePostal": "29200",
    "prix": 195000,
    "surface": 89,
    "surfaceCarrez": null,
    "pieces": 5,
    "lat": 48.391377,
    "lon": -4.536885,
    "nbLots": 1,
    "prixM2": 2191,
    "surfaceAffichee": 89
  },
  {
    "id": "2024-20240112-000001-119650",
    "date": "2024-01-12",
    "type": "Appartement",
    "adresse": "320 RUE CAPITAINE ALFRED DREYFUS",
    "codePostal": "29200",
    "prix": 119650,
    "surface": 56,
    "surfaceCarrez": 52.15,
    "pieces": 2,
    "lat": 48.392594,
    "lon": -4.538517,
    "nbLots": 1,
    "prixM2": 2294,
    "surfaceAffichee": 52.15
  },
  {
    "id": "2024-20240104-000001-139540",
    "date": "2024-01-04",
    "type": "Appartement",
    "adresse": "17 RUE DE PEN-AR-MENEZ",
    "codePostal": "29200",
    "prix": 139540,
    "surface": 76,
    "surfaceCarrez": null,
    "pieces": 5,
    "lat": 48.408486,
    "lon": -4.491972,
    "nbLots": 2,
    "prixM2": 1836,
    "surfaceAffichee": 76
  },
  {
    "id": "2024-20240110-000001-114000",
    "date": "2024-01-10",
    "type": "Appartement",
    "adresse": "37 RUE YVES COLLET",
    "codePostal": "29200",
    "prix": 114000,
    "surface": 60,
    "surfaceCarrez": 115.42,
    "pieces": 3,
    "lat": 48.392141,
    "lon": -4.479774,
    "nbLots": 1,
    "prixM2": 988,
    "surfaceAffichee": 115.42
  },
  {
    "id": "2024-20240109-000001-132800",
    "date": "2024-01-09",
    "type": "Appartement",
    "adresse": "14 B RUE DE QUIMPER",
    "codePostal": "29200",
    "prix": 132800,
    "surface": 70,
    "surfaceCarrez": 142.54,
    "pieces": 4,
    "lat": 48.402363,
    "lon": -4.463789,
    "nbLots": 1,
    "prixM2": 932,
    "surfaceAffichee": 142.54
  },
  {
    "id": "2024-20240119-000001-131700",
    "date": "2024-01-19",
    "type": "Appartement",
    "adresse": "1 RUE MARCEL PIROU",
    "codePostal": "29200",
    "prix": 131700,
    "surface": 81,
    "surfaceCarrez": 168.64,
    "pieces": 4,
    "lat": 48.385466,
    "lon": -4.526308,
    "nbLots": 2,
    "prixM2": 781,
    "surfaceAffichee": 168.64
  },
  {
    "id": "2024-20240118-000001-48000",
    "date": "2024-01-18",
    "type": "Appartement",
    "adresse": "56 RUE VICTOR EUSEN",
    "codePostal": "29200",
    "prix": 48000,
    "surface": 29,
    "surfaceCarrez": 27.97,
    "pieces": 1,
    "lat": 48.38017,
    "lon": -4.533606,
    "nbLots": 1,
    "prixM2": 1716,
    "surfaceAffichee": 27.97
  },
  {
    "id": "2024-20240115-000001-146150",
    "date": "2024-01-15",
    "type": "Appartement",
    "adresse": "7 RUE DE CHERBOURG",
    "codePostal": "29200",
    "prix": 146150,
    "surface": 66,
    "surfaceCarrez": null,
    "pieces": 4,
    "lat": 48.381518,
    "lon": -4.501482,
    "nbLots": 2,
    "prixM2": 2214,
    "surfaceAffichee": 66
  },
  {
    "id": "2024-20240112-000001-54150",
    "date": "2024-01-12",
    "type": "Appartement",
    "adresse": "6 RUE RICHELIEU",
    "codePostal": "29200",
    "prix": 54150,
    "surface": 18,
    "surfaceCarrez": null,
    "pieces": 1,
    "lat": 48.395832,
    "lon": -4.475122,
    "nbLots": 2,
    "prixM2": 3008,
    "surfaceAffichee": 18
  },
  {
    "id": "2024-20240109-000001-117000",
    "date": "2024-01-09",
    "type": "Appartement",
    "adresse": "30 BD LEON BLUM",
    "codePostal": "29200",
    "prix": 117000,
    "surface": 72,
    "surfaceCarrez": 136.22,
    "pieces": 2,
    "lat": 48.405518,
    "lon": -4.484843,
    "nbLots": 1,
    "prixM2": 859,
    "surfaceAffichee": 136.22
  },
  {
    "id": "2024-20240109-000001-300350",
    "date": "2024-01-09",
    "type": "Maison",
    "adresse": "21 RUE VAUVENARGUES",
    "codePostal": "29200",
    "prix": 300350,
    "surface": 115,
    "surfaceCarrez": null,
    "pieces": 4,
    "lat": 48.372801,
    "lon": -4.536099,
    "nbLots": 1,
    "prixM2": 2612,
    "surfaceAffichee": 115
  },
  {
    "id": "2024-20240110-000001-170000",
    "date": "2024-01-10",
    "type": "Appartement",
    "adresse": "9001 RUE GUILBAUD",
    "codePostal": "29200",
    "prix": 170000,
    "surface": 77,
    "surfaceCarrez": null,
    "pieces": 4,
    "lat": 48.385886,
    "lon": -4.505246,
    "nbLots": 2,
    "prixM2": 2208,
    "surfaceAffichee": 77
  },
  {
    "id": "2024-20240119-000001-231000",
    "date": "2024-01-19",
    "type": "Maison",
    "adresse": "11 RUE GUILLAUME BALEY",
    "codePostal": "29200",
    "prix": 231000,
    "surface": 92,
    "surfaceCarrez": null,
    "pieces": 5,
    "lat": 48.415349,
    "lon": -4.49654,
    "nbLots": 1,
    "prixM2": 2511,
    "surfaceAffichee": 92
  },
  {
    "id": "2024-20240119-000001-180000",
    "date": "2024-01-19",
    "type": "Maison",
    "adresse": "364 RUE JACQUELINE MAILLAN",
    "codePostal": "29200",
    "prix": 180000,
    "surface": 80,
    "surfaceCarrez": 80.05,
    "pieces": 4,
    "lat": 48.390763,
    "lon": -4.535931,
    "nbLots": 1,
    "prixM2": 2249,
    "surfaceAffichee": 80.05
  },
  {
    "id": "2024-20240112-000001-15000",
    "date": "2024-01-12",
    "type": "Dépendance",
    "adresse": "10 RUE HENRI MOISSAN",
    "codePostal": "29200",
    "prix": 15000,
    "surface": null,
    "surfaceCarrez": null,
    "pieces": null,
    "lat": 48.383248,
    "lon": -4.504743,
    "nbLots": 1,
    "prixM2": null,
    "surfaceAffichee": null
  },
  {
    "id": "2024-20240110-000001-137700",
    "date": "2024-01-10",
    "type": "Maison",
    "adresse": "143 RUE DU COMMANDANT DROGOU",
    "codePostal": "29200",
    "prix": 137700,
    "surface": 62,
    "surfaceCarrez": null,
    "pieces": 3,
    "lat": 48.40505,
    "lon": -4.503895,
    "nbLots": 1,
    "prixM2": 2221,
    "surfaceAffichee": 62
  },
  {
    "id": "2024-20240108-000001-190000",
    "date": "2024-01-08",
    "type": "Appartement",
    "adresse": "101 RUE MATHIEU DONNART",
    "codePostal": "29200",
    "prix": 190000,
    "surface": 50,
    "surfaceCarrez": 50.68,
    "pieces": 2,
    "lat": 48.401014,
    "lon": -4.488659,
    "nbLots": 1,
    "prixM2": 3749,
    "surfaceAffichee": 50.68
  },
  {
    "id": "2024-20240112-000001-92000",
    "date": "2024-01-12",
    "type": "Appartement",
    "adresse": "47 RUE YVES COLLET",
    "codePostal": "29200",
    "prix": 92000,
    "surface": 43,
    "surfaceCarrez": 86.8,
    "pieces": 2,
    "lat": 48.392762,
    "lon": -4.479282,
    "nbLots": 2,
    "prixM2": 1060,
    "surfaceAffichee": 86.8
  },
  {
    "id": "2024-20240116-000001-10000",
    "date": "2024-01-16",
    "type": "Dépendance",
    "adresse": "11 RUE BARA",
    "codePostal": "29200",
    "prix": 10000,
    "surface": null,
    "surfaceCarrez": null,
    "pieces": null,
    "lat": 48.399595,
    "lon": -4.466484,
    "nbLots": 1,
    "prixM2": null,
    "surfaceAffichee": null
  },
  {
    "id": "2024-20240116-000001-85000",
    "date": "2024-01-16",
    "type": "Appartement",
    "adresse": "22 RUE DE KERMENGUY",
    "codePostal": "29200",
    "prix": 85000,
    "surface": 69,
    "surfaceCarrez": null,
    "pieces": 4,
    "lat": 48.403435,
    "lon": -4.500904,
    "nbLots": 2,
    "prixM2": 1232,
    "surfaceAffichee": 69
  },
  {
    "id": "2024-20240117-000001-132300",
    "date": "2024-01-17",
    "type": "Appartement",
    "adresse": "33 RUE DU DUC D AUMALE",
    "codePostal": "29200",
    "prix": 132300,
    "surface": 75,
    "surfaceCarrez": 151.66,
    "pieces": 4,
    "lat": 48.401168,
    "lon": -4.510328,
    "nbLots": 2,
    "prixM2": 872,
    "surfaceAffichee": 151.66
  },
  {
    "id": "2024-20240117-000001-160000",
    "date": "2024-01-17",
    "type": "Appartement",
    "adresse": "142 RUE ROBESPIERRE",
    "codePostal": "29200",
    "prix": 160000,
    "surface": 66,
    "surfaceCarrez": 65.87,
    "pieces": 3,
    "lat": 48.404746,
    "lon": -4.488243,
    "nbLots": 1,
    "prixM2": 2429,
    "surfaceAffichee": 65.87
  },
  {
    "id": "2024-20240103-000001-500000",
    "date": "2024-01-03",
    "type": "Maison",
    "adresse": "43 RUE RICHELIEU",
    "codePostal": "29200",
    "prix": 500000,
    "surface": 100,
    "surfaceCarrez": null,
    "pieces": 6,
    "lat": 48.393439,
    "lon": -4.474632,
    "nbLots": 1,
    "prixM2": 5000,
    "surfaceAffichee": 100
  },
  {
    "id": "2024-20240123-000001-334600",
    "date": "2024-01-23",
    "type": "Maison",
    "adresse": "365 RUE MARGUERITE YOURCENAR",
    "codePostal": "29200",
    "prix": 334600,
    "surface": 110,
    "surfaceCarrez": null,
    "pieces": 5,
    "lat": 48.393604,
    "lon": -4.536082,
    "nbLots": 1,
    "prixM2": 3042,
    "surfaceAffichee": 110
  },
  {
    "id": "2024-20240103-000001-188500",
    "date": "2024-01-03",
    "type": "Maison",
    "adresse": "39 RUE GUIZOT",
    "codePostal": "29200",
    "prix": 188500,
    "surface": 72,
    "surfaceCarrez": null,
    "pieces": 3,
    "lat": 48.406424,
    "lon": -4.492796,
    "nbLots": 1,
    "prixM2": 2618,
    "surfaceAffichee": 72
  },
  {
    "id": "2024-20240105-000001-70029",
    "date": "2024-01-05",
    "type": "Appartement",
    "adresse": "162 RUE ANATOLE FRANCE",
    "codePostal": "29200",
    "prix": 70029,
    "surface": 48,
    "surfaceCarrez": null,
    "pieces": 2,
    "lat": 48.383007,
    "lon": -4.518721,
    "nbLots": 2,
    "prixM2": 1459,
    "surfaceAffichee": 48
  },
  {
    "id": "2024-20240108-000001-121000",
    "date": "2024-01-08",
    "type": "Appartement",
    "adresse": "390 RUE CAPITAINE ALFRED DREYFUS",
    "codePostal": "29200",
    "prix": 121000,
    "surface": 50,
    "surfaceCarrez": 51.23,
    "pieces": 2,
    "lat": 48.393243,
    "lon": -4.53851,
    "nbLots": 1,
    "prixM2": 2362,
    "surfaceAffichee": 51.23
  },
  {
    "id": "2024-20240103-000001-232000",
    "date": "2024-01-03",
    "type": "Appartement",
    "adresse": "5 RUE JEAN CLEZIO",
    "codePostal": "29200",
    "prix": 232000,
    "surface": 102,
    "surfaceCarrez": null,
    "pieces": 5,
    "lat": 48.398173,
    "lon": -4.458088,
    "nbLots": 2,
    "prixM2": 2275,
    "surfaceAffichee": 102
  },
  {
    "id": "2024-20240103-000001-340000",
    "date": "2024-01-03",
    "type": "Appartement",
    "adresse": "3 RUE VICTOR SEGALEN",
    "codePostal": "29200",
    "prix": 340000,
    "surface": 135,
    "surfaceCarrez": 415.95000000000005,
    "pieces": 5,
    "lat": 48.38534,
    "lon": -4.487349,
    "nbLots": 3,
    "prixM2": 817,
    "surfaceAffichee": 415.95000000000005
  },
  {
    "id": "2024-20240102-000001-14500",
    "date": "2024-01-02",
    "type": "Dépendance",
    "adresse": "37 RUE DU REMPART",
    "codePostal": "29200",
    "prix": 14500,
    "surface": null,
    "surfaceCarrez": null,
    "pieces": null,
    "lat": 48.383597,
    "lon": -4.502298,
    "nbLots": 1,
    "prixM2": null,
    "surfaceAffichee": null
  },
  {
    "id": "2024-20240105-000001-105500",
    "date": "2024-01-05",
    "type": "Appartement",
    "adresse": "89 RUE SEBASTOPOL",
    "codePostal": "29200",
    "prix": 105500,
    "surface": 57,
    "surfaceCarrez": 113.24,
    "pieces": 3,
    "lat": 48.401437,
    "lon": -4.46737,
    "nbLots": 1,
    "prixM2": 932,
    "surfaceAffichee": 113.24
  },
  {
    "id": "2024-20240105-000001-168600",
    "date": "2024-01-05",
    "type": "Appartement",
    "adresse": "5 RUE BIGOT DE MOROGUES",
    "codePostal": "29200",
    "prix": 168600,
    "surface": 66,
    "surfaceCarrez": null,
    "pieces": 4,
    "lat": 48.404113,
    "lon": -4.476704,
    "nbLots": 2,
    "prixM2": 2555,
    "surfaceAffichee": 66
  },
  {
    "id": "2024-20240105-000001-77000",
    "date": "2024-01-05",
    "type": "Appartement",
    "adresse": "34 RUE DE L EGLISE",
    "codePostal": "29200",
    "prix": 77000,
    "surface": 45,
    "surfaceCarrez": null,
    "pieces": 2,
    "lat": 48.382089,
    "lon": -4.500589,
    "nbLots": 1,
    "prixM2": 1711,
    "surfaceAffichee": 45
  },
  {
    "id": "2024-20240124-000001-10000",
    "date": "2024-01-24",
    "type": "Appartement",
    "adresse": "13 RUE BUFFON",
    "codePostal": "29200",
    "prix": 10000,
    "surface": 17,
    "surfaceCarrez": null,
    "pieces": 1,
    "lat": 48.399503,
    "lon": -4.489787,
    "nbLots": 1,
    "prixM2": 588,
    "surfaceAffichee": 17
  },
  {
    "id": "2024-20240124-000002-81600",
    "date": "2024-01-24",
    "type": "Appartement",
    "adresse": "13 RUE BUFFON",
    "codePostal": "29200",
    "prix": 81600,
    "surface": 53,
    "surfaceCarrez": 53.42,
    "pieces": 3,
    "lat": 48.399503,
    "lon": -4.489787,
    "nbLots": 1,
    "prixM2": 1528,
    "surfaceAffichee": 53.42
  },
  {
    "id": "2024-20240109-000001-185000",
    "date": "2024-01-09",
    "type": "Appartement",
    "adresse": "4 RUE DUGUAY TROUIN",
    "codePostal": "29200",
    "prix": 185000,
    "surface": 58,
    "surfaceCarrez": null,
    "pieces": 4,
    "lat": 48.383691,
    "lon": -4.489511,
    "nbLots": 1,
    "prixM2": 3190,
    "surfaceAffichee": 58
  },
  {
    "id": "2024-20240105-000001-80000",
    "date": "2024-01-05",
    "type": "Appartement",
    "adresse": "6 RUE GAL ARCHINARD",
    "codePostal": "29200",
    "prix": 80000,
    "surface": 73,
    "surfaceCarrez": null,
    "pieces": 4,
    "lat": 48.400522,
    "lon": -4.506655,
    "nbLots": 2,
    "prixM2": 1096,
    "surfaceAffichee": 73
  },
  {
    "id": "2024-20240112-000001-75000",
    "date": "2024-01-12",
    "type": "Dépendance",
    "adresse": "4 RUE DU BOIS D AMOUR",
    "codePostal": "29200",
    "prix": 75000,
    "surface": null,
    "surfaceCarrez": null,
    "pieces": null,
    "lat": 48.388149,
    "lon": -4.486943,
    "nbLots": 1,
    "prixM2": null,
    "surfaceAffichee": null
  },
  {
    "id": "2024-20240111-000001-153000",
    "date": "2024-01-11",
    "type": "Appartement",
    "adresse": "22 RUE BOUSSINGAULT",
    "codePostal": "29200",
    "prix": 153000,
    "surface": 66,
    "surfaceCarrez": null,
    "pieces": 3,
    "lat": 48.388551,
    "lon": -4.487402,
    "nbLots": 1,
    "prixM2": 2318,
    "surfaceAffichee": 66
  },
  {
    "id": "2024-20240111-000001-69870",
    "date": "2024-01-11",
    "type": "Appartement",
    "adresse": "10 RUE DU DUC D AUMALE",
    "codePostal": "29200",
    "prix": 69870,
    "surface": 33,
    "surfaceCarrez": 66.12,
    "pieces": 1,
    "lat": 48.401015,
    "lon": -4.509484,
    "nbLots": 2,
    "prixM2": 1057,
    "surfaceAffichee": 66.12
  },
  {
    "id": "2024-20240127-000001-132600",
    "date": "2024-01-27",
    "type": "Appartement",
    "adresse": "14 RUE DE CHERBOURG",
    "codePostal": "29200",
    "prix": 132600,
    "surface": 59,
    "surfaceCarrez": null,
    "pieces": 2,
    "lat": 48.382026,
    "lon": -4.501766,
    "nbLots": 2,
    "prixM2": 2247,
    "surfaceAffichee": 59
  },
  {
    "id": "2024-20240115-000001-12500",
    "date": "2024-01-15",
    "type": "Dépendance",
    "adresse": "73 RUE PAUL MASSON",
    "codePostal": "29200",
    "prix": 12500,
    "surface": null,
    "surfaceCarrez": null,
    "pieces": null,
    "lat": 48.401125,
    "lon": -4.479955,
    "nbLots": 1,
    "prixM2": null,
    "surfaceAffichee": null
  },
  {
    "id": "2024-20240120-000001-170000",
    "date": "2024-01-20",
    "type": "Maison",
    "adresse": "12 RUE JEAN GIRAUDOUX",
    "codePostal": "29200",
    "prix": 170000,
    "surface": 84,
    "surfaceCarrez": null,
    "pieces": 4,
    "lat": 48.410386,
    "lon": -4.509729,
    "nbLots": 1,
    "prixM2": 2024,
    "surfaceAffichee": 84
  },
  {
    "id": "2024-20240122-000001-411000",
    "date": "2024-01-22",
    "type": "Maison",
    "adresse": "58 BD COMMANDANT MOUCHOTTE",
    "codePostal": "29200",
    "prix": 411000,
    "surface": 165,
    "surfaceCarrez": null,
    "pieces": 8,
    "lat": 48.388031,
    "lon": -4.508721,
    "nbLots": 1,
    "prixM2": 2491,
    "surfaceAffichee": 165
  },
  {
    "id": "2024-20240118-000001-89600",
    "date": "2024-01-18",
    "type": "Appartement",
    "adresse": "5 RUE ALBERT LOUPPE",
    "codePostal": "29200",
    "prix": 89600,
    "surface": 51,
    "surfaceCarrez": 106.4,
    "pieces": 3,
    "lat": 48.403052,
    "lon": -4.468634,
    "nbLots": 1,
    "prixM2": 842,
    "surfaceAffichee": 106.4
  },
  {
    "id": "2024-20240123-000001-189000",
    "date": "2024-01-23",
    "type": "Maison",
    "adresse": "21 RUE LOUIS JOUVET",
    "codePostal": "29200",
    "prix": 189000,
    "surface": 95,
    "surfaceCarrez": null,
    "pieces": 5,
    "lat": 48.408256,
    "lon": -4.491697,
    "nbLots": 1,
    "prixM2": 1989,
    "surfaceAffichee": 95
  },
  {
    "id": "2024-20240112-000001-47000",
    "date": "2024-01-12",
    "type": "Appartement",
    "adresse": "47 RUE DU COMMANDANT DROGOU",
    "codePostal": "29200",
    "prix": 47000,
    "surface": 46,
    "surfaceCarrez": null,
    "pieces": 1,
    "lat": 48.405113,
    "lon": -4.494923,
    "nbLots": 2,
    "prixM2": 1022,
    "surfaceAffichee": 46
  },
  {
    "id": "2024-20240115-000001-53000",
    "date": "2024-01-15",
    "type": "Appartement",
    "adresse": "15 RUE MASSILLON",
    "codePostal": "29200",
    "prix": 53000,
    "surface": 23,
    "surfaceCarrez": 23.1,
    "pieces": 1,
    "lat": 48.39618,
    "lon": -4.480612,
    "nbLots": 1,
    "prixM2": 2294,
    "surfaceAffichee": 23.1
  },
  {
    "id": "2024-20240115-000001-102000",
    "date": "2024-01-15",
    "type": "Appartement",
    "adresse": "6 RUE DU LIMOUSIN",
    "codePostal": "29200",
    "prix": 102000,
    "surface": 57,
    "surfaceCarrez": null,
    "pieces": 2,
    "lat": 48.403014,
    "lon": -4.515839,
    "nbLots": 2,
    "prixM2": 1789,
    "surfaceAffichee": 57
  },
  {
    "id": "2024-20240117-000001-260000",
    "date": "2024-01-17",
    "type": "Appartement",
    "adresse": "33 RUE DE LA DUCHESSE ANNE",
    "codePostal": "29200",
    "prix": 260000,
    "surface": 104,
    "surfaceCarrez": null,
    "pieces": 6,
    "lat": 48.400046,
    "lon": -4.460472,
    "nbLots": 1,
    "prixM2": 2500,
    "surfaceAffichee": 104
  },
  {
    "id": "2024-20240118-000001-33000",
    "date": "2024-01-18",
    "type": "Appartement",
    "adresse": "67 RUE JULES GUESDE",
    "codePostal": "29200",
    "prix": 33000,
    "surface": 30,
    "surfaceCarrez": 26.83,
    "pieces": 1,
    "lat": 48.395346,
    "lon": -4.471878,
    "nbLots": 2,
    "prixM2": 1230,
    "surfaceAffichee": 26.83
  },
  {
    "id": "2024-20240124-000001-107000",
    "date": "2024-01-24",
    "type": "Appartement",
    "adresse": "40 RUE ANNA MARLY",
    "codePostal": "29200",
    "prix": 107000,
    "surface": 45,
    "surfaceCarrez": 46.12,
    "pieces": 2,
    "lat": 48.406498,
    "lon": -4.497728,
    "nbLots": 1,
    "prixM2": 2320,
    "surfaceAffichee": 46.12
  },
  {
    "id": "2024-20240129-000001-130000",
    "date": "2024-01-29",
    "type": "Appartement",
    "adresse": "22 RUE KERAVEL",
    "codePostal": "29200",
    "prix": 130000,
    "surface": 54,
    "surfaceCarrez": null,
    "pieces": 2,
    "lat": 48.390016,
    "lon": -4.492504,
    "nbLots": 2,
    "prixM2": 2407,
    "surfaceAffichee": 54
  },
  {
    "id": "2024-20240117-000001-310000",
    "date": "2024-01-17",
    "type": "Maison",
    "adresse": "355 RTE DE LARC'HANTEL",
    "codePostal": "29200",
    "prix": 310000,
    "surface": 92,
    "surfaceCarrez": null,
    "pieces": 6,
    "lat": 48.381917,
    "lon": -4.552976,
    "nbLots": 1,
    "prixM2": 3370,
    "surfaceAffichee": 92
  },
  {
    "id": "2024-20240124-000001-7000",
    "date": "2024-01-24",
    "type": "Dépendance",
    "adresse": "9002 A AV DE TARENTE",
    "codePostal": "29200",
    "prix": 7000,
    "surface": null,
    "surfaceCarrez": null,
    "pieces": null,
    "lat": 48.405277,
    "lon": -4.510835,
    "nbLots": 1,
    "prixM2": null,
    "surfaceAffichee": null
  },
  {
    "id": "2024-20240115-000001-310000",
    "date": "2024-01-15",
    "type": "Maison",
    "adresse": "50 RUE FELIX LE DANTEC",
    "codePostal": "29200",
    "prix": 310000,
    "surface": 70,
    "surfaceCarrez": null,
    "pieces": 5,
    "lat": 48.396213,
    "lon": -4.485509,
    "nbLots": 1,
    "prixM2": 4429,
    "surfaceAffichee": 70
  },
  {
    "id": "2024-20240111-000001-78900",
    "date": "2024-01-11",
    "type": "Appartement",
    "adresse": "20 RUE ROBESPIERRE",
    "codePostal": "29200",
    "prix": 78900,
    "surface": 55,
    "surfaceCarrez": null,
    "pieces": 2,
    "lat": 48.413805,
    "lon": -4.491402,
    "nbLots": 2,
    "prixM2": 1435,
    "surfaceAffichee": 55
  },
  {
    "id": "2024-20240110-000001-79500",
    "date": "2024-01-10",
    "type": "Appartement",
    "adresse": "28 RUE PUEBLA",
    "codePostal": "29200",
    "prix": 79500,
    "surface": 37,
    "surfaceCarrez": null,
    "pieces": 2,
    "lat": 48.398361,
    "lon": -4.469818,
    "nbLots": 2,
    "prixM2": 2149,
    "surfaceAffichee": 37
  },
  {
    "id": "2024-20240111-000001-165500",
    "date": "2024-01-11",
    "type": "Maison",
    "adresse": "8 RUE BROUSSAIS",
    "codePostal": "29200",
    "prix": 165500,
    "surface": 75,
    "surfaceCarrez": null,
    "pieces": 4,
    "lat": 48.422651,
    "lon": -4.492973,
    "nbLots": 1,
    "prixM2": 2207,
    "surfaceAffichee": 75
  },
  {
    "id": "2024-20240129-000001-237175",
    "date": "2024-01-29",
    "type": "Maison",
    "adresse": "4 RUE DE L YSER",
    "codePostal": "29200",
    "prix": 237175,
    "surface": 127,
    "surfaceCarrez": null,
    "pieces": 5,
    "lat": 48.380509,
    "lon": -4.516102,
    "nbLots": 1,
    "prixM2": 1868,
    "surfaceAffichee": 127
  },
  {
    "id": "2024-20240126-000001-207000",
    "date": "2024-01-26",
    "type": "Maison",
    "adresse": "75 CHE DE LA VANDREE",
    "codePostal": "29200",
    "prix": 207000,
    "surface": 76,
    "surfaceCarrez": null,
    "pieces": 4,
    "lat": 48.378359,
    "lon": -4.528427,
    "nbLots": 1,
    "prixM2": 2724,
    "surfaceAffichee": 76
  },
  {
    "id": "2024-20240126-000001-412000",
    "date": "2024-01-26",
    "type": "Maison",
    "adresse": "64 RUE JEANNE D ARC",
    "codePostal": "29200",
    "prix": 412000,
    "surface": 154,
    "surfaceCarrez": null,
    "pieces": 6,
    "lat": 48.395687,
    "lon": -4.464459,
    "nbLots": 1,
    "prixM2": 2675,
    "surfaceAffichee": 154
  },
  {
    "id": "2024-20240109-000001-112900",
    "date": "2024-01-09",
    "type": "Appartement",
    "adresse": "12 RUE DU VERCORS",
    "codePostal": "29200",
    "prix": 112900,
    "surface": 64,
    "surfaceCarrez": 128.24,
    "pieces": 3,
    "lat": 48.401757,
    "lon": -4.469598,
    "nbLots": 2,
    "prixM2": 880,
    "surfaceAffichee": 128.24
  },
  {
    "id": "2024-20240130-000001-160000",
    "date": "2024-01-30",
    "type": "Appartement",
    "adresse": "5 PL DES GARGOTS",
    "codePostal": "29200",
    "prix": 160000,
    "surface": 61,
    "surfaceCarrez": 60.8,
    "pieces": 3,
    "lat": 48.395749,
    "lon": -4.48294,
    "nbLots": 1,
    "prixM2": 2632,
    "surfaceAffichee": 60.8
  },
  {
    "id": "2024-20240122-000001-255000",
    "date": "2024-01-22",
    "type": "Appartement",
    "adresse": "82 BD GAMBETTA",
    "codePostal": "29200",
    "prix": 255000,
    "surface": 85,
    "surfaceCarrez": null,
    "pieces": 4,
    "lat": 48.389753,
    "lon": -4.474296,
    "nbLots": 2,
    "prixM2": 3000,
    "surfaceAffichee": 85
  },
  {
    "id": "2024-20240126-000001-126455",
    "date": "2024-01-26",
    "type": "Appartement",
    "adresse": "2 RUE D INGRES",
    "codePostal": "29200",
    "prix": 126455,
    "surface": 71,
    "surfaceCarrez": 146,
    "pieces": 4,
    "lat": 48.4098,
    "lon": -4.45527,
    "nbLots": 2,
    "prixM2": 866,
    "surfaceAffichee": 146
  },
  {
    "id": "2024-20240110-000001-142600",
    "date": "2024-01-10",
    "type": "Appartement",
    "adresse": "14 RUE HENRI MOISSAN",
    "codePostal": "29200",
    "prix": 142600,
    "surface": 81,
    "surfaceCarrez": 171.76,
    "pieces": 4,
    "lat": 48.383411,
    "lon": -4.505056,
    "nbLots": 2,
    "prixM2": 830,
    "surfaceAffichee": 171.76
  },
  {
    "id": "2024-20240118-000001-88000",
    "date": "2024-01-18",
    "type": "Appartement",
    "adresse": "68 RUE DU CARPONT",
    "codePostal": "29200",
    "prix": 88000,
    "surface": 59,
    "surfaceCarrez": 122.4,
    "pieces": 3,
    "lat": 48.390327,
    "lon": -4.50545,
    "nbLots": 1,
    "prixM2": 719,
    "surfaceAffichee": 122.4
  },
  {
    "id": "2024-20240131-000001-118500",
    "date": "2024-01-31",
    "type": "Appartement",
    "adresse": "9 RUE CLAUDE PERRAULT",
    "codePostal": "29200",
    "prix": 118500,
    "surface": 56,
    "surfaceCarrez": null,
    "pieces": 3,
    "lat": 48.381784,
    "lon": -4.531807,
    "nbLots": 2,
    "prixM2": 2116,
    "surfaceAffichee": 56
  },
  {
    "id": "2024-20240105-000001-423000",
    "date": "2024-01-05",
    "type": "Appartement",
    "adresse": "46 RUE AMIRAL LINOIS",
    "codePostal": "29200",
    "prix": 423000,
    "surface": 100,
    "surfaceCarrez": null,
    "pieces": 4,
    "lat": 48.386081,
    "lon": -4.490439,
    "nbLots": 7,
    "prixM2": 4230,
    "surfaceAffichee": 100
  },
  {
    "id": "2024-20240127-000001-75000",
    "date": "2024-01-27",
    "type": "Appartement",
    "adresse": "17 B RUE GUILBAUD",
    "codePostal": "29200",
    "prix": 75000,
    "surface": 30,
    "surfaceCarrez": null,
    "pieces": 1,
    "lat": 48.385886,
    "lon": -4.505246,
    "nbLots": 2,
    "prixM2": 2500,
    "surfaceAffichee": 30
  },
  {
    "id": "2024-20240104-000001-59891.75",
    "date": "2024-01-04",
    "type": "Appartement",
    "adresse": "22 RUE AMIRAL LINOIS",
    "codePostal": "29200",
    "prix": 59891.75,
    "surface": 15,
    "surfaceCarrez": null,
    "pieces": 1,
    "lat": 48.384935,
    "lon": -4.491893,
    "nbLots": 1,
    "prixM2": 3993,
    "surfaceAffichee": 15
  },
  {
    "id": "2024-20240122-000001-153000",
    "date": "2024-01-22",
    "type": "Appartement",
    "adresse": "36 RUE ALBERT LOUPPE",
    "codePostal": "29200",
    "prix": 153000,
    "surface": 79,
    "surfaceCarrez": null,
    "pieces": 3,
    "lat": 48.403478,
    "lon": -4.472028,
    "nbLots": 2,
    "prixM2": 1937,
    "surfaceAffichee": 79
  },
  {
    "id": "2024-20240119-000001-165000",
    "date": "2024-01-19",
    "type": "Appartement",
    "adresse": "6 RUE ROMAIN MALASSIS",
    "codePostal": "29200",
    "prix": 165000,
    "surface": 112,
    "surfaceCarrez": null,
    "pieces": 5,
    "lat": 48.400875,
    "lon": -4.496269,
    "nbLots": 2,
    "prixM2": 1473,
    "surfaceAffichee": 112
  },
  {
    "id": "2024-20240124-000001-200870",
    "date": "2024-01-24",
    "type": "Appartement",
    "adresse": "25 RUE ARMORIQUE",
    "codePostal": "29200",
    "prix": 200870,
    "surface": 81,
    "surfaceCarrez": 98,
    "pieces": 4,
    "lat": 48.384931,
    "lon": -4.500788,
    "nbLots": 1,
    "prixM2": 2050,
    "surfaceAffichee": 98
  },
  {
    "id": "2024-20240123-000001-64500",
    "date": "2024-01-23",
    "type": "Appartement",
    "adresse": "7 RUE BRUAT",
    "codePostal": "29200",
    "prix": 64500,
    "surface": 18,
    "surfaceCarrez": 19.07,
    "pieces": 1,
    "lat": 48.396643,
    "lon": -4.482433,
    "nbLots": 1,
    "prixM2": 3382,
    "surfaceAffichee": 19.07
  },
  {
    "id": "2024-20240119-000001-174010",
    "date": "2024-01-19",
    "type": "Maison",
    "adresse": "147 RUE BRENDA WOOTTON",
    "codePostal": "29200",
    "prix": 174010,
    "surface": 81,
    "surfaceCarrez": null,
    "pieces": 4,
    "lat": 48.405332,
    "lon": -4.498745,
    "nbLots": 1,
    "prixM2": 2148,
    "surfaceAffichee": 81
  },
  {
    "id": "2024-20240122-000001-61000",
    "date": "2024-01-22",
    "type": "Appartement",
    "adresse": "1 RUE SEBASTOPOL",
    "codePostal": "29200",
    "prix": 61000,
    "surface": 22,
    "surfaceCarrez": 22.03,
    "pieces": 2,
    "lat": 48.396929,
    "lon": -4.474178,
    "nbLots": 1,
    "prixM2": 2769,
    "surfaceAffichee": 22.03
  },
  {
    "id": "2024-20240126-000001-131510",
    "date": "2024-01-26",
    "type": "Appartement",
    "adresse": "10 RUE CLAUDE PERRAULT",
    "codePostal": "29200",
    "prix": 131510,
    "surface": 64,
    "surfaceCarrez": 125.18,
    "pieces": 4,
    "lat": 48.381608,
    "lon": -4.531717,
    "nbLots": 2,
    "prixM2": 1051,
    "surfaceAffichee": 125.18
  },
  {
    "id": "2024-20240112-000001-196000",
    "date": "2024-01-12",
    "type": "Appartement",
    "adresse": "58 RUE LEVOT",
    "codePostal": "29200",
    "prix": 196000,
    "surface": 65,
    "surfaceCarrez": 65.02,
    "pieces": 3,
    "lat": 48.394624,
    "lon": -4.473198,
    "nbLots": 1,
    "prixM2": 3014,
    "surfaceAffichee": 65.02
  },
  {
    "id": "2024-20240109-000001-101800",
    "date": "2024-01-09",
    "type": "Appartement",
    "adresse": "6 RUE MOSTAGANEM",
    "codePostal": "29200",
    "prix": 101800,
    "surface": 51,
    "surfaceCarrez": 100.82,
    "pieces": 3,
    "lat": 48.389751,
    "lon": -4.480778,
    "nbLots": 1,
    "prixM2": 1010,
    "surfaceAffichee": 100.82
  },
  {
    "id": "2024-20240130-000001-50600",
    "date": "2024-01-30",
    "type": "Appartement",
    "adresse": "16 AV DU POLYGONE",
    "codePostal": "29200",
    "prix": 50600,
    "surface": 17,
    "surfaceCarrez": null,
    "pieces": 1,
    "lat": 48.383884,
    "lon": -4.512404,
    "nbLots": 2,
    "prixM2": 2976,
    "surfaceAffichee": 17
  },
  {
    "id": "2024-20240115-000001-194900",
    "date": "2024-01-15",
    "type": "Appartement",
    "adresse": "12 RUE PARMENTIER",
    "codePostal": "29200",
    "prix": 194900,
    "surface": 72,
    "surfaceCarrez": null,
    "pieces": 3,
    "lat": 48.385702,
    "lon": -4.484164,
    "nbLots": 2,
    "prixM2": 2707,
    "surfaceAffichee": 72
  },
  {
    "id": "2024-20240115-000001-127700",
    "date": "2024-01-15",
    "type": "Appartement",
    "adresse": "1 RUE AIME COTTON",
    "codePostal": "29200",
    "prix": 127700,
    "surface": 69,
    "surfaceCarrez": 207.14999999999998,
    "pieces": 3,
    "lat": 48.409336,
    "lon": -4.463524,
    "nbLots": 2,
    "prixM2": 616,
    "surfaceAffichee": 207.14999999999998
  },
  {
    "id": "2024-20240117-000001-130000",
    "date": "2024-01-17",
    "type": "Appartement",
    "adresse": "62 RUE DE LYON",
    "codePostal": "29200",
    "prix": 130000,
    "surface": 56,
    "surfaceCarrez": 117.56,
    "pieces": 2,
    "lat": 48.391015,
    "lon": -4.493097,
    "nbLots": 2,
    "prixM2": 1106,
    "surfaceAffichee": 117.56
  },
  {
    "id": "2024-20240112-000001-79300",
    "date": "2024-01-12",
    "type": "Appartement",
    "adresse": "81 RUE JULES GUESDE",
    "codePostal": "29200",
    "prix": 79300,
    "surface": 22,
    "surfaceCarrez": null,
    "pieces": 1,
    "lat": 48.396111,
    "lon": -4.472372,
    "nbLots": 2,
    "prixM2": 3605,
    "surfaceAffichee": 22
  },
  {
    "id": "2024-20240112-000001-308000",
    "date": "2024-01-12",
    "type": "Maison",
    "adresse": "25 RUE JULES GUESDE",
    "codePostal": "29200",
    "prix": 308000,
    "surface": 48,
    "surfaceCarrez": null,
    "pieces": 2,
    "lat": 48.391155,
    "lon": -4.470933,
    "nbLots": 1,
    "prixM2": 6417,
    "surfaceAffichee": 48
  },
  {
    "id": "2024-20240201-000001-99000",
    "date": "2024-02-01",
    "type": "Appartement",
    "adresse": "40 RUE DE LA PORTE",
    "codePostal": "29200",
    "prix": 99000,
    "surface": 62,
    "surfaceCarrez": 51.43,
    "pieces": 2,
    "lat": 48.384103,
    "lon": -4.501313,
    "nbLots": 1,
    "prixM2": 1925,
    "surfaceAffichee": 51.43
  },
  {
    "id": "2024-20240202-000001-123000",
    "date": "2024-02-02",
    "type": "Appartement",
    "adresse": "23 RUE DE MAISSIN",
    "codePostal": "29200",
    "prix": 123000,
    "surface": 71,
    "surfaceCarrez": null,
    "pieces": 4,
    "lat": 48.38837,
    "lon": -4.503348,
    "nbLots": 2,
    "prixM2": 1732,
    "surfaceAffichee": 71
  },
  {
    "id": "2024-20240202-000001-133500",
    "date": "2024-02-02",
    "type": "Appartement",
    "adresse": "59 RUE YVES COLLET",
    "codePostal": "29200",
    "prix": 133500,
    "surface": 90,
    "surfaceCarrez": null,
    "pieces": 3,
    "lat": 48.395565,
    "lon": -4.476621,
    "nbLots": 2,
    "prixM2": 1483,
    "surfaceAffichee": 90
  },
  {
    "id": "2024-20240131-000001-419350",
    "date": "2024-01-31",
    "type": "Maison",
    "adresse": "18 RUE CALMETTE GUERIN",
    "codePostal": "29200",
    "prix": 419350,
    "surface": 94,
    "surfaceCarrez": null,
    "pieces": 5,
    "lat": 48.40362,
    "lon": -4.479507,
    "nbLots": 1,
    "prixM2": 4461,
    "surfaceAffichee": 94
  },
  {
    "id": "2024-20240201-000001-150000",
    "date": "2024-02-01",
    "type": "Maison",
    "adresse": "75 RUE PAUL MASSON",
    "codePostal": "29200",
    "prix": 150000,
    "surface": 115,
    "surfaceCarrez": null,
    "pieces": 6,
    "lat": 48.401196,
    "lon": -4.479927,
    "nbLots": 1,
    "prixM2": 1304,
    "surfaceAffichee": 115
  },
  {
    "id": "2024-20240129-000001-110000",
    "date": "2024-01-29",
    "type": "Appartement",
    "adresse": "119 RUE JEAN JAURES",
    "codePostal": "29200",
    "prix": 110000,
    "surface": 55,
    "surfaceCarrez": 115.4,
    "pieces": 3,
    "lat": 48.395526,
    "lon": -4.477755,
    "nbLots": 1,
    "prixM2": 953,
    "surfaceAffichee": 115.4
  },
  {
    "id": "2024-20240126-000001-230000",
    "date": "2024-01-26",
    "type": "Maison",
    "adresse": "3 RUE GEOFFROY ST HILAIRE",
    "codePostal": "29200",
    "prix": 230000,
    "surface": 116,
    "surfaceCarrez": null,
    "pieces": 5,
    "lat": 48.407526,
    "lon": -4.494571,
    "nbLots": 1,
    "prixM2": 1983,
    "surfaceAffichee": 116
  },
  {
    "id": "2024-20240126-000001-162000",
    "date": "2024-01-26",
    "type": "Appartement",
    "adresse": "35 RUE DE BOHARS",
    "codePostal": "29200",
    "prix": 162000,
    "surface": 77,
    "surfaceCarrez": 115.72,
    "pieces": 4,
    "lat": 48.417775,
    "lon": -4.494621,
    "nbLots": 2,
    "prixM2": 1400,
    "surfaceAffichee": 115.72
  },
  {
    "id": "2024-20240127-000001-141000",
    "date": "2024-01-27",
    "type": "Appartement",
    "adresse": "8 RUE BOSQUET",
    "codePostal": "29200",
    "prix": 141000,
    "surface": 74,
    "surfaceCarrez": null,
    "pieces": 4,
    "lat": 48.400497,
    "lon": -4.505588,
    "nbLots": 2,
    "prixM2": 1905,
    "surfaceAffichee": 74
  },
  {
    "id": "2024-20240205-000001-120000",
    "date": "2024-02-05",
    "type": "Appartement",
    "adresse": "97 RUE HOCHE",
    "codePostal": "29200",
    "prix": 120000,
    "surface": 67,
    "surfaceCarrez": 133.1,
    "pieces": 1,
    "lat": 48.404687,
    "lon": -4.473514,
    "nbLots": 1,
    "prixM2": 902,
    "surfaceAffichee": 133.1
  },
  {
    "id": "2024-20240131-000001-45000",
    "date": "2024-01-31",
    "type": "Appartement",
    "adresse": "10 RUE DE L OBSERVATOIRE",
    "codePostal": "29200",
    "prix": 45000,
    "surface": 25,
    "surfaceCarrez": null,
    "pieces": 1,
    "lat": 48.392749,
    "lon": -4.491566,
    "nbLots": 2,
    "prixM2": 1800,
    "surfaceAffichee": 25
  },
  {
    "id": "2024-20240126-000001-80000",
    "date": "2024-01-26",
    "type": "Appartement",
    "adresse": "3 RUE DE LOCTUDY",
    "codePostal": "29200",
    "prix": 80000,
    "surface": 39,
    "surfaceCarrez": 80.88,
    "pieces": 2,
    "lat": 48.404407,
    "lon": -4.460737,
    "nbLots": 2,
    "prixM2": 989,
    "surfaceAffichee": 80.88
  },
  {
    "id": "2024-20240205-000001-14990",
    "date": "2024-02-05",
    "type": "Dépendance",
    "adresse": "51 RUE SEBASTOPOL",
    "codePostal": "29200",
    "prix": 14990,
    "surface": null,
    "surfaceCarrez": null,
    "pieces": null,
    "lat": 48.398557,
    "lon": -4.471258,
    "nbLots": 1,
    "prixM2": null,
    "surfaceAffichee": null
  },
  {
    "id": "2024-20240203-000001-91000",
    "date": "2024-02-03",
    "type": "Appartement",
    "adresse": "9 RUE FRANCOIS CORDON",
    "codePostal": "29200",
    "prix": 91000,
    "surface": 58,
    "surfaceCarrez": 58.32,
    "pieces": 2,
    "lat": 48.380402,
    "lon": -4.535893,
    "nbLots": 1,
    "prixM2": 1560,
    "surfaceAffichee": 58.32
  },
  {
    "id": "2024-20240129-000001-253150",
    "date": "2024-01-29",
    "type": "Maison",
    "adresse": "45 RUE RAYMOND DEVOS",
    "codePostal": "29200",
    "prix": 253150,
    "surface": 84,
    "surfaceCarrez": null,
    "pieces": 5,
    "lat": 48.394537,
    "lon": -4.537309,
    "nbLots": 1,
    "prixM2": 3014,
    "surfaceAffichee": 84
  },
  {
    "id": "2024-20240125-000001-122000",
    "date": "2024-01-25",
    "type": "Appartement",
    "adresse": "5 CITE MONTGOLFIER",
    "codePostal": "29200",
    "prix": 122000,
    "surface": 67,
    "surfaceCarrez": 127.44,
    "pieces": 4,
    "lat": 48.389495,
    "lon": -4.505073,
    "nbLots": 2,
    "prixM2": 957,
    "surfaceAffichee": 127.44
  },
  {
    "id": "2024-20240125-000001-140500",
    "date": "2024-01-25",
    "type": "Appartement",
    "adresse": "2 RUE DES MARCHES",
    "codePostal": "29200",
    "prix": 140500,
    "surface": 67,
    "surfaceCarrez": 150.56,
    "pieces": 3,
    "lat": 48.384595,
    "lon": -4.498907,
    "nbLots": 2,
    "prixM2": 933,
    "surfaceAffichee": 150.56
  },
  {
    "id": "2024-20240119-000001-53333.55",
    "date": "2024-01-19",
    "type": "Maison",
    "adresse": "45 RUE RAYMOND DEVOS",
    "codePostal": "29200",
    "prix": 53333.55,
    "surface": 84,
    "surfaceCarrez": null,
    "pieces": 5,
    "lat": 48.394537,
    "lon": -4.537309,
    "nbLots": 1,
    "prixM2": 635,
    "surfaceAffichee": 84
  },
  {
    "id": "2024-20240125-000001-190000",
    "date": "2024-01-25",
    "type": "Maison",
    "adresse": "6 RUE GUY MOQUET",
    "codePostal": "29200",
    "prix": 190000,
    "surface": 119,
    "surfaceCarrez": null,
    "pieces": 7,
    "lat": 48.418922,
    "lon": -4.477435,
    "nbLots": 1,
    "prixM2": 1597,
    "surfaceAffichee": 119
  },
  {
    "id": "2024-20240125-000001-231670",
    "date": "2024-01-25",
    "type": "Maison",
    "adresse": "46 RUE MATHIEU DONNART",
    "codePostal": "29200",
    "prix": 231670,
    "surface": 117,
    "surfaceCarrez": null,
    "pieces": 1,
    "lat": 48.399894,
    "lon": -4.486486,
    "nbLots": 1,
    "prixM2": 1980,
    "surfaceAffichee": 117
  },
  {
    "id": "2024-20240115-000001-47000",
    "date": "2024-01-15",
    "type": "Appartement",
    "adresse": "84 RUE SEBASTOPOL",
    "codePostal": "29200",
    "prix": 47000,
    "surface": 32,
    "surfaceCarrez": null,
    "pieces": 1,
    "lat": 48.401304,
    "lon": -4.467842,
    "nbLots": 2,
    "prixM2": 1469,
    "surfaceAffichee": 32
  },
  {
    "id": "2024-20240117-000001-190000",
    "date": "2024-01-17",
    "type": "Maison",
    "adresse": "16 RUE MAX POL FOUCHET",
    "codePostal": "29200",
    "prix": 190000,
    "surface": 89,
    "surfaceCarrez": null,
    "pieces": 5,
    "lat": 48.394862,
    "lon": -4.518285,
    "nbLots": 1,
    "prixM2": 2135,
    "surfaceAffichee": 89
  },
  {
    "id": "2024-20240201-000001-56800",
    "date": "2024-02-01",
    "type": "Appartement",
    "adresse": "49 RUE VAUBAN",
    "codePostal": "29200",
    "prix": 56800,
    "surface": 53,
    "surfaceCarrez": 104.39999999999999,
    "pieces": 2,
    "lat": 48.385377,
    "lon": -4.501065,
    "nbLots": 2,
    "prixM2": 544,
    "surfaceAffichee": 104.39999999999999
  },
  {
    "id": "2024-20240201-000001-221500",
    "date": "2024-02-01",
    "type": "Maison",
    "adresse": "15 RUE SCHUBERT",
    "codePostal": "29200",
    "prix": 221500,
    "surface": 104,
    "surfaceCarrez": null,
    "pieces": 5,
    "lat": 48.392497,
    "lon": -4.524057,
    "nbLots": 1,
    "prixM2": 2130,
    "surfaceAffichee": 104
  },
  {
    "id": "2024-20240124-000001-830000",
    "date": "2024-01-24",
    "type": "Maison",
    "adresse": "27 RUE INKERMANN",
    "codePostal": "29200",
    "prix": 830000,
    "surface": 175,
    "surfaceCarrez": null,
    "pieces": 6,
    "lat": 48.399374,
    "lon": -4.468035,
    "nbLots": 1,
    "prixM2": 4743,
    "surfaceAffichee": 175
  },
  {
    "id": "2024-20240130-000001-276900",
    "date": "2024-01-30",
    "type": "Appartement",
    "adresse": "9001 RUE GUILBAUD",
    "codePostal": "29200",
    "prix": 276900,
    "surface": 95,
    "surfaceCarrez": 180.72,
    "pieces": 5,
    "lat": 48.385886,
    "lon": -4.505246,
    "nbLots": 2,
    "prixM2": 1532,
    "surfaceAffichee": 180.72
  },
  {
    "id": "2024-20240130-000001-290000",
    "date": "2024-01-30",
    "type": "Appartement",
    "adresse": "7 RUE ARTHUR RIMBAUD",
    "codePostal": "29200",
    "prix": 290000,
    "surface": 115,
    "surfaceCarrez": null,
    "pieces": 6,
    "lat": 48.378833,
    "lon": -4.524735,
    "nbLots": 2,
    "prixM2": 2522,
    "surfaceAffichee": 115
  },
  {
    "id": "2024-20240201-000001-134250",
    "date": "2024-02-01",
    "type": "Appartement",
    "adresse": "4 RUE MOSTAGANEM",
    "codePostal": "29200",
    "prix": 134250,
    "surface": 66,
    "surfaceCarrez": 135.28,
    "pieces": 4,
    "lat": 48.389415,
    "lon": -4.480671,
    "nbLots": 1,
    "prixM2": 992,
    "surfaceAffichee": 135.28
  },
  {
    "id": "2024-20240129-000001-126000",
    "date": "2024-01-29",
    "type": "Appartement",
    "adresse": "2 RUE EUGENE DELACROIX",
    "codePostal": "29200",
    "prix": 126000,
    "surface": 62,
    "surfaceCarrez": 124.6,
    "pieces": 3,
    "lat": 48.40971,
    "lon": -4.455616,
    "nbLots": 2,
    "prixM2": 1011,
    "surfaceAffichee": 124.6
  },
  {
    "id": "2024-20240207-000001-296000",
    "date": "2024-02-07",
    "type": "Appartement",
    "adresse": "2 RUE GEORGE SAND",
    "codePostal": "29200",
    "prix": 296000,
    "surface": 84,
    "surfaceCarrez": 192.68,
    "pieces": 3,
    "lat": 48.387787,
    "lon": -4.486386,
    "nbLots": 1,
    "prixM2": 1536,
    "surfaceAffichee": 192.68
  },
  {
    "id": "2024-20240131-000001-88500",
    "date": "2024-01-31",
    "type": "Appartement",
    "adresse": "6 RUE DU CAP DE VAISSEAU RENON",
    "codePostal": "29200",
    "prix": 88500,
    "surface": 51,
    "surfaceCarrez": 97,
    "pieces": 2,
    "lat": 48.402913,
    "lon": -4.473111,
    "nbLots": 2,
    "prixM2": 912,
    "surfaceAffichee": 97
  },
  {
    "id": "2024-20240130-000001-188000",
    "date": "2024-01-30",
    "type": "Maison",
    "adresse": "23 RUE DE CONCARNEAU",
    "codePostal": "29200",
    "prix": 188000,
    "surface": 113,
    "surfaceCarrez": null,
    "pieces": 6,
    "lat": 48.40594,
    "lon": -4.460507,
    "nbLots": 1,
    "prixM2": 1664,
    "surfaceAffichee": 113
  },
  {
    "id": "2024-20240206-000001-142000",
    "date": "2024-02-06",
    "type": "Maison",
    "adresse": "17 RUE MESDOUN",
    "codePostal": "29200",
    "prix": 142000,
    "surface": 59,
    "surfaceCarrez": null,
    "pieces": 4,
    "lat": 48.378215,
    "lon": -4.524247,
    "nbLots": 1,
    "prixM2": 2407,
    "surfaceAffichee": 59
  },
  {
    "id": "2024-20240125-000001-163000",
    "date": "2024-01-25",
    "type": "Appartement",
    "adresse": "11 RUE PIERRE SEVRE",
    "codePostal": "29200",
    "prix": 163000,
    "surface": 80,
    "surfaceCarrez": 159.9,
    "pieces": 4,
    "lat": 48.403515,
    "lon": -4.469295,
    "nbLots": 2,
    "prixM2": 1019,
    "surfaceAffichee": 159.9
  },
  {
    "id": "2024-20240202-000001-155000",
    "date": "2024-02-02",
    "type": "Maison",
    "adresse": "49 BD DE L'EUROPE",
    "codePostal": "29200",
    "prix": 155000,
    "surface": 72,
    "surfaceCarrez": null,
    "pieces": 5,
    "lat": 48.413334,
    "lon": -4.48615,
    "nbLots": 1,
    "prixM2": 2153,
    "surfaceAffichee": 72
  },
  {
    "id": "2024-20240111-000001-196000",
    "date": "2024-01-11",
    "type": "Appartement",
    "adresse": "25 RUE ANJELA DUVAL",
    "codePostal": "29200",
    "prix": 196000,
    "surface": 98,
    "surfaceCarrez": 99.42,
    "pieces": 5,
    "lat": 48.396402,
    "lon": -4.526413,
    "nbLots": 2,
    "prixM2": 1971,
    "surfaceAffichee": 99.42
  },
  {
    "id": "2024-20240116-000001-9000",
    "date": "2024-01-16",
    "type": "Dépendance",
    "adresse": "40 AV DE PROVENCE",
    "codePostal": "29200",
    "prix": 9000,
    "surface": null,
    "surfaceCarrez": null,
    "pieces": null,
    "lat": 48.40771,
    "lon": -4.514784,
    "nbLots": 1,
    "prixM2": null,
    "surfaceAffichee": null
  },
  {
    "id": "2024-20240201-000001-99800",
    "date": "2024-02-01",
    "type": "Appartement",
    "adresse": "9000 RUE ANNA MARLY",
    "codePostal": "29200",
    "prix": 99800,
    "surface": 36,
    "surfaceCarrez": 35.99,
    "pieces": 1,
    "lat": 48.406313,
    "lon": -4.498053,
    "nbLots": 1,
    "prixM2": 2773,
    "surfaceAffichee": 35.99
  },
  {
    "id": "2024-20240116-000001-195790",
    "date": "2024-01-16",
    "type": "Appartement",
    "adresse": "6 RUE EUGENE DELACROIX",
    "codePostal": "29200",
    "prix": 195790,
    "surface": 71,
    "surfaceCarrez": 140.98,
    "pieces": 4,
    "lat": 48.40966,
    "lon": -4.455646,
    "nbLots": 2,
    "prixM2": 1389,
    "surfaceAffichee": 140.98
  },
  {
    "id": "2024-20240116-000001-93500",
    "date": "2024-01-16",
    "type": "Appartement",
    "adresse": "64 RUE DE LA REPUBLIQUE",
    "codePostal": "29200",
    "prix": 93500,
    "surface": 29,
    "surfaceCarrez": null,
    "pieces": 1,
    "lat": 48.392884,
    "lon": -4.475002,
    "nbLots": 3,
    "prixM2": 3224,
    "surfaceAffichee": 29
  },
  {
    "id": "2024-20240116-000001-296000",
    "date": "2024-01-16",
    "type": "Appartement",
    "adresse": "19 RUE DE LA PORTE",
    "codePostal": "29200",
    "prix": 296000,
    "surface": 118,
    "surfaceCarrez": null,
    "pieces": 5,
    "lat": 48.384451,
    "lon": -4.499228,
    "nbLots": 4,
    "prixM2": 2508,
    "surfaceAffichee": 118
  },
  {
    "id": "2024-20240130-000001-130000",
    "date": "2024-01-30",
    "type": "Appartement",
    "adresse": "12 RUE DE PARIS",
    "codePostal": "29200",
    "prix": 130000,
    "surface": 88,
    "surfaceCarrez": null,
    "pieces": 3,
    "lat": 48.403608,
    "lon": -4.465789,
    "nbLots": 3,
    "prixM2": 1477,
    "surfaceAffichee": 88
  },
  {
    "id": "2024-20240117-000001-398000",
    "date": "2024-01-17",
    "type": "Appartement",
    "adresse": "17 RUE VICTOR HUGO",
    "codePostal": "29200",
    "prix": 398000,
    "surface": 131,
    "surfaceCarrez": null,
    "pieces": 5,
    "lat": 48.391653,
    "lon": -4.480809,
    "nbLots": 4,
    "prixM2": 3038,
    "surfaceAffichee": 131
  },
  {
    "id": "2024-20240205-000001-300000",
    "date": "2024-02-05",
    "type": "Appartement",
    "adresse": "29 AV GEORGES CLEMENCEAU",
    "codePostal": "29200",
    "prix": 300000,
    "surface": 133,
    "surfaceCarrez": null,
    "pieces": 4,
    "lat": 48.390951,
    "lon": -4.487148,
    "nbLots": 2,
    "prixM2": 2256,
    "surfaceAffichee": 133
  },
  {
    "id": "2024-20240202-000001-71500",
    "date": "2024-02-02",
    "type": "Appartement",
    "adresse": "16 RUE VAUBAN",
    "codePostal": "29200",
    "prix": 71500,
    "surface": 33,
    "surfaceCarrez": 31.88,
    "pieces": 2,
    "lat": 48.383896,
    "lon": -4.500814,
    "nbLots": 1,
    "prixM2": 2243,
    "surfaceAffichee": 31.88
  },
  {
    "id": "2024-20240201-000001-126460",
    "date": "2024-02-01",
    "type": "Appartement",
    "adresse": "3 RUE BOURNAZEL",
    "codePostal": "29200",
    "prix": 126460,
    "surface": 56,
    "surfaceCarrez": 114.26,
    "pieces": 3,
    "lat": 48.389228,
    "lon": -4.507054,
    "nbLots": 2,
    "prixM2": 1107,
    "surfaceAffichee": 114.26
  },
  {
    "id": "2024-20240126-000001-106000",
    "date": "2024-01-26",
    "type": "Appartement",
    "adresse": "41 RUE BRUAT",
    "codePostal": "29200",
    "prix": 106000,
    "surface": 45,
    "surfaceCarrez": null,
    "pieces": 3,
    "lat": 48.398667,
    "lon": -4.479636,
    "nbLots": 2,
    "prixM2": 2356,
    "surfaceAffichee": 45
  },
  {
    "id": "2024-20240202-000001-82000",
    "date": "2024-02-02",
    "type": "Appartement",
    "adresse": "1 RUE POULLAOUEC",
    "codePostal": "29200",
    "prix": 82000,
    "surface": 21,
    "surfaceCarrez": 20.56,
    "pieces": 1,
    "lat": 48.395623,
    "lon": -4.471008,
    "nbLots": 1,
    "prixM2": 3988,
    "surfaceAffichee": 20.56
  },
  {
    "id": "2024-20240209-000001-174000",
    "date": "2024-02-09",
    "type": "Appartement",
    "adresse": "11 RUE DE LYON",
    "codePostal": "29200",
    "prix": 174000,
    "surface": 47,
    "surfaceCarrez": null,
    "pieces": 2,
    "lat": 48.387098,
    "lon": -4.485627,
    "nbLots": 1,
    "prixM2": 3702,
    "surfaceAffichee": 47
  },
  {
    "id": "2024-20240201-000001-61000",
    "date": "2024-02-01",
    "type": "Appartement",
    "adresse": "41 RUE HOCHE",
    "codePostal": "29200",
    "prix": 61000,
    "surface": 31,
    "surfaceCarrez": null,
    "pieces": 2,
    "lat": 48.401863,
    "lon": -4.477131,
    "nbLots": 1,
    "prixM2": 1968,
    "surfaceAffichee": 31
  },
  {
    "id": "2024-20240208-000001-239870",
    "date": "2024-02-08",
    "type": "Appartement",
    "adresse": "2 RUE CHANOINE GUERMEUR",
    "codePostal": "29200",
    "prix": 239870,
    "surface": 83,
    "surfaceCarrez": null,
    "pieces": 5,
    "lat": 48.380275,
    "lon": -4.515022,
    "nbLots": 2,
    "prixM2": 2890,
    "surfaceAffichee": 83
  },
  {
    "id": "2024-20240130-000001-47000",
    "date": "2024-01-30",
    "type": "Appartement",
    "adresse": "14 RUE NEPTUNE",
    "codePostal": "29200",
    "prix": 47000,
    "surface": 21,
    "surfaceCarrez": null,
    "pieces": 1,
    "lat": 48.384239,
    "lon": -4.489334,
    "nbLots": 2,
    "prixM2": 2238,
    "surfaceAffichee": 21
  },
  {
    "id": "2024-20240125-000001-69280",
    "date": "2024-01-25",
    "type": "Appartement",
    "adresse": "162 RUE DE VERDUN",
    "codePostal": "29200",
    "prix": 69280,
    "surface": 35,
    "surfaceCarrez": null,
    "pieces": 2,
    "lat": 48.399015,
    "lon": -4.450627,
    "nbLots": 2,
    "prixM2": 1979,
    "surfaceAffichee": 35
  },
  {
    "id": "2024-20240130-000001-150000",
    "date": "2024-01-30",
    "type": "Appartement",
    "adresse": "3 RUE DE FOUGERES",
    "codePostal": "29200",
    "prix": 150000,
    "surface": 99,
    "surfaceCarrez": null,
    "pieces": 5,
    "lat": 48.406416,
    "lon": -4.519845,
    "nbLots": 2,
    "prixM2": 1515,
    "surfaceAffichee": 99
  },
  {
    "id": "2024-20240119-000001-196700",
    "date": "2024-01-19",
    "type": "Appartement",
    "adresse": "1 RUE SAINT-EXUPERY",
    "codePostal": "29200",
    "prix": 196700,
    "surface": 94,
    "surfaceCarrez": null,
    "pieces": 4,
    "lat": 48.38251,
    "lon": -4.503486,
    "nbLots": 1,
    "prixM2": 2093,
    "surfaceAffichee": 94
  },
  {
    "id": "2024-20240116-000001-310000",
    "date": "2024-01-16",
    "type": "Dépendance",
    "adresse": "27 RUE VOLTAIRE",
    "codePostal": "29200",
    "prix": 310000,
    "surface": null,
    "surfaceCarrez": null,
    "pieces": null,
    "lat": 48.385733,
    "lon": -4.485789,
    "nbLots": 1,
    "prixM2": null,
    "surfaceAffichee": null
  },
  {
    "id": "2024-20240117-000001-107000",
    "date": "2024-01-17",
    "type": "Appartement",
    "adresse": "18 RUE SAINT-JACQUES",
    "codePostal": "29200",
    "prix": 107000,
    "surface": 92,
    "surfaceCarrez": null,
    "pieces": 5,
    "lat": 48.408467,
    "lon": -4.473561,
    "nbLots": 2,
    "prixM2": 1163,
    "surfaceAffichee": 92
  },
  {
    "id": "2024-20240117-000001-127000",
    "date": "2024-01-17",
    "type": "Appartement",
    "adresse": "28 B RUE DE BOHARS",
    "codePostal": "29200",
    "prix": 127000,
    "surface": 62,
    "surfaceCarrez": 125.3,
    "pieces": 3,
    "lat": 48.417099,
    "lon": -4.494614,
    "nbLots": 1,
    "prixM2": 1014,
    "surfaceAffichee": 125.3
  },
  {
    "id": "2024-20240119-000001-172000",
    "date": "2024-01-19",
    "type": "Appartement",
    "adresse": "1 PL DES FFI",
    "codePostal": "29200",
    "prix": 172000,
    "surface": 100,
    "surfaceCarrez": 106.55,
    "pieces": 4,
    "lat": 48.403024,
    "lon": -4.466308,
    "nbLots": 1,
    "prixM2": 1614,
    "surfaceAffichee": 106.55
  },
  {
    "id": "2024-20240131-000001-128000",
    "date": "2024-01-31",
    "type": "Appartement",
    "adresse": "149 RUE DE PARIS",
    "codePostal": "29200",
    "prix": 128000,
    "surface": 37,
    "surfaceCarrez": 79.52,
    "pieces": 2,
    "lat": 48.410872,
    "lon": -4.454322,
    "nbLots": 1,
    "prixM2": 1610,
    "surfaceAffichee": 79.52
  },
  {
    "id": "2024-20240209-000001-347961.12",
    "date": "2024-02-09",
    "type": "Maison",
    "adresse": "26 RUE EDOUARD CORBIERE",
    "codePostal": "29200",
    "prix": 347961.12,
    "surface": 130,
    "surfaceCarrez": null,
    "pieces": 5,
    "lat": 48.39177,
    "lon": -4.474614,
    "nbLots": 1,
    "prixM2": 2677,
    "surfaceAffichee": 130
  },
  {
    "id": "2024-20240130-000001-82000",
    "date": "2024-01-30",
    "type": "Appartement",
    "adresse": "9 B RUE DE L ABER WRAC H",
    "codePostal": "29200",
    "prix": 82000,
    "surface": 64,
    "surfaceCarrez": null,
    "pieces": 4,
    "lat": 48.40462,
    "lon": -4.459978,
    "nbLots": 2,
    "prixM2": 1281,
    "surfaceAffichee": 64
  },
  {
    "id": "2024-20240126-000001-154550",
    "date": "2024-01-26",
    "type": "Appartement",
    "adresse": "9 RUE KERUSCUN",
    "codePostal": "29200",
    "prix": 154550,
    "surface": 60,
    "surfaceCarrez": 194.82,
    "pieces": 2,
    "lat": 48.395755,
    "lon": -4.471569,
    "nbLots": 1,
    "prixM2": 793,
    "surfaceAffichee": 194.82
  },
  {
    "id": "2024-20240201-000001-260000",
    "date": "2024-02-01",
    "type": "Maison",
    "adresse": "19 RUE GEORGES MANDEL",
    "codePostal": "29200",
    "prix": 260000,
    "surface": 115,
    "surfaceCarrez": null,
    "pieces": 5,
    "lat": 48.385205,
    "lon": -4.509439,
    "nbLots": 1,
    "prixM2": 2261,
    "surfaceAffichee": 115
  },
  {
    "id": "2024-20240201-000001-140000",
    "date": "2024-02-01",
    "type": "Appartement",
    "adresse": "3 RUE DE L ABER WRAC H",
    "codePostal": "29200",
    "prix": 140000,
    "surface": 54,
    "surfaceCarrez": 102.66,
    "pieces": 3,
    "lat": 48.404491,
    "lon": -4.4601,
    "nbLots": 2,
    "prixM2": 1364,
    "surfaceAffichee": 102.66
  },
  {
    "id": "2024-20240205-000001-102000",
    "date": "2024-02-05",
    "type": "Appartement",
    "adresse": "12 RUE CLAUDE PERRAULT",
    "codePostal": "29200",
    "prix": 102000,
    "surface": 64,
    "surfaceCarrez": null,
    "pieces": 4,
    "lat": 48.381594,
    "lon": -4.531793,
    "nbLots": 2,
    "prixM2": 1594,
    "surfaceAffichee": 64
  },
  {
    "id": "2024-20240129-000001-226450",
    "date": "2024-01-29",
    "type": "Maison",
    "adresse": "50 B RUE DE KEROURIEN",
    "codePostal": "29200",
    "prix": 226450,
    "surface": 98,
    "surfaceCarrez": null,
    "pieces": 6,
    "lat": 48.382936,
    "lon": -4.53757,
    "nbLots": 1,
    "prixM2": 2311,
    "surfaceAffichee": 98
  },
  {
    "id": "2024-20240205-000001-155000",
    "date": "2024-02-05",
    "type": "Appartement",
    "adresse": "53 RUE SEBASTOPOL",
    "codePostal": "29200",
    "prix": 155000,
    "surface": 70,
    "surfaceCarrez": null,
    "pieces": 3,
    "lat": 48.398813,
    "lon": -4.471309,
    "nbLots": 1,
    "prixM2": 2214,
    "surfaceAffichee": 70
  },
  {
    "id": "2024-20240206-000001-115000",
    "date": "2024-02-06",
    "type": "Appartement",
    "adresse": "34 RUE DE L EGLISE",
    "codePostal": "29200",
    "prix": 115000,
    "surface": 56,
    "surfaceCarrez": null,
    "pieces": 2,
    "lat": 48.382089,
    "lon": -4.500589,
    "nbLots": 1,
    "prixM2": 2054,
    "surfaceAffichee": 56
  },
  {
    "id": "2024-20240207-000001-225000",
    "date": "2024-02-07",
    "type": "Maison",
    "adresse": "65 RUE FRANCOISE GIROUD",
    "codePostal": "29200",
    "prix": 225000,
    "surface": 75,
    "surfaceCarrez": null,
    "pieces": 4,
    "lat": 48.377361,
    "lon": -4.52453,
    "nbLots": 1,
    "prixM2": 3000,
    "surfaceAffichee": 75
  },
  {
    "id": "2024-20240209-000001-110400",
    "date": "2024-02-09",
    "type": "Appartement",
    "adresse": "4 RUE DURET",
    "codePostal": "29200",
    "prix": 110400,
    "surface": 45,
    "surfaceCarrez": 132.72,
    "pieces": 2,
    "lat": 48.395504,
    "lon": -4.47967,
    "nbLots": 2,
    "prixM2": 832,
    "surfaceAffichee": 132.72
  },
  {
    "id": "2024-20240208-000001-192697",
    "date": "2024-02-08",
    "type": "Appartement",
    "adresse": "1 T RUE ALFRED DE VIGNY",
    "codePostal": "29200",
    "prix": 192697,
    "surface": 68,
    "surfaceCarrez": null,
    "pieces": 5,
    "lat": 48.390553,
    "lon": -4.467973,
    "nbLots": 1,
    "prixM2": 2834,
    "surfaceAffichee": 68
  },
  {
    "id": "2024-20240202-000001-145000",
    "date": "2024-02-02",
    "type": "Appartement",
    "adresse": "142 RUE ROBESPIERRE",
    "codePostal": "29200",
    "prix": 145000,
    "surface": 59,
    "surfaceCarrez": 65.39,
    "pieces": 3,
    "lat": 48.404746,
    "lon": -4.488243,
    "nbLots": 1,
    "prixM2": 2217,
    "surfaceAffichee": 65.39
  },
  {
    "id": "2024-20240210-000001-56233",
    "date": "2024-02-10",
    "type": "Appartement",
    "adresse": "2 RUE SOLFERINO",
    "codePostal": "29200",
    "prix": 56233,
    "surface": 39,
    "surfaceCarrez": 79.38,
    "pieces": 2,
    "lat": 48.397358,
    "lon": -4.471812,
    "nbLots": 2,
    "prixM2": 708,
    "surfaceAffichee": 79.38
  },
  {
    "id": "2024-20240206-000001-93000",
    "date": "2024-02-06",
    "type": "Appartement",
    "adresse": "6 SQ DE SWANSEA",
    "codePostal": "29200",
    "prix": 93000,
    "surface": 61,
    "surfaceCarrez": 122.22,
    "pieces": 4,
    "lat": 48.402532,
    "lon": -4.479822,
    "nbLots": 2,
    "prixM2": 761,
    "surfaceAffichee": 122.22
  },
  {
    "id": "2024-20240205-000001-219000",
    "date": "2024-02-05",
    "type": "Appartement",
    "adresse": "9 RUE KEREON",
    "codePostal": "29200",
    "prix": 219000,
    "surface": 86,
    "surfaceCarrez": null,
    "pieces": 4,
    "lat": 48.390398,
    "lon": -4.490399,
    "nbLots": 2,
    "prixM2": 2547,
    "surfaceAffichee": 86
  },
  {
    "id": "2024-20240202-000001-266000",
    "date": "2024-02-02",
    "type": "Appartement",
    "adresse": "3 RUE TURENNE",
    "codePostal": "29200",
    "prix": 266000,
    "surface": 168,
    "surfaceCarrez": null,
    "pieces": 7,
    "lat": 48.396657,
    "lon": -4.477043,
    "nbLots": 5,
    "prixM2": 1583,
    "surfaceAffichee": 168
  },
  {
    "id": "2024-20240126-000001-258000",
    "date": "2024-01-26",
    "type": "Appartement",
    "adresse": "35 RUE JEAN MACE",
    "codePostal": "29200",
    "prix": 258000,
    "surface": 85,
    "surfaceCarrez": null,
    "pieces": 4,
    "lat": 48.387463,
    "lon": -4.489165,
    "nbLots": 2,
    "prixM2": 3035,
    "surfaceAffichee": 85
  },
  {
    "id": "2024-20240206-000001-131400",
    "date": "2024-02-06",
    "type": "Appartement",
    "adresse": "2 RUE D AUDIERNE",
    "codePostal": "29200",
    "prix": 131400,
    "surface": 68,
    "surfaceCarrez": 137.24,
    "pieces": 4,
    "lat": 48.404053,
    "lon": -4.464429,
    "nbLots": 1,
    "prixM2": 957,
    "surfaceAffichee": 137.24
  },
  {
    "id": "2024-20240125-000001-162500",
    "date": "2024-01-25",
    "type": "Appartement",
    "adresse": "69 RTE DE LA CORNICHE",
    "codePostal": "29200",
    "prix": 162500,
    "surface": 71,
    "surfaceCarrez": 136.28,
    "pieces": 4,
    "lat": 48.377847,
    "lon": -4.508747,
    "nbLots": 1,
    "prixM2": 1192,
    "surfaceAffichee": 136.28
  },
  {
    "id": "2024-20240124-000001-128250",
    "date": "2024-01-24",
    "type": "Appartement",
    "adresse": "4 RUE DE MOGUERIEC",
    "codePostal": "29200",
    "prix": 128250,
    "surface": 68,
    "surfaceCarrez": null,
    "pieces": 4,
    "lat": 48.4042,
    "lon": -4.463622,
    "nbLots": 2,
    "prixM2": 1886,
    "surfaceAffichee": 68
  },
  {
    "id": "2024-20240216-000001-185000",
    "date": "2024-02-16",
    "type": "Maison",
    "adresse": "19 RUE DE BRUXELLES",
    "codePostal": "29200",
    "prix": 185000,
    "surface": 121,
    "surfaceCarrez": null,
    "pieces": 5,
    "lat": 48.375117,
    "lon": -4.528135,
    "nbLots": 1,
    "prixM2": 1529,
    "surfaceAffichee": 121
  },
  {
    "id": "2024-20240122-000001-60000",
    "date": "2024-01-22",
    "type": "Appartement",
    "adresse": "10 RUE CUIRASSE BRETAGNE",
    "codePostal": "29200",
    "prix": 60000,
    "surface": 18,
    "surfaceCarrez": null,
    "pieces": 1,
    "lat": 48.406,
    "lon": -4.496721,
    "nbLots": 1,
    "prixM2": 3333,
    "surfaceAffichee": 18
  },
  {
    "id": "2024-20240202-000001-59000",
    "date": "2024-02-02",
    "type": "Dépendance",
    "adresse": "19 RUE DANTON",
    "codePostal": "29200",
    "prix": 59000,
    "surface": null,
    "surfaceCarrez": null,
    "pieces": null,
    "lat": 48.396793,
    "lon": -4.481722,
    "nbLots": 1,
    "prixM2": null,
    "surfaceAffichee": null
  },
  {
    "id": "2024-20240130-000001-135000",
    "date": "2024-01-30",
    "type": "Appartement",
    "adresse": "2 RUE CHANOINE GUERMEUR",
    "codePostal": "29200",
    "prix": 135000,
    "surface": 90,
    "surfaceCarrez": null,
    "pieces": 5,
    "lat": 48.380275,
    "lon": -4.515022,
    "nbLots": 2,
    "prixM2": 1500,
    "surfaceAffichee": 90
  },
  {
    "id": "2024-20240130-000001-161000",
    "date": "2024-01-30",
    "type": "Appartement",
    "adresse": "18 RUE SAINT-JACQUES",
    "codePostal": "29200",
    "prix": 161000,
    "surface": 92,
    "surfaceCarrez": null,
    "pieces": 5,
    "lat": 48.408467,
    "lon": -4.473561,
    "nbLots": 2,
    "prixM2": 1750,
    "surfaceAffichee": 92
  },
  {
    "id": "2024-20240125-000001-359494",
    "date": "2024-01-25",
    "type": "Maison",
    "adresse": "51 RUE DES HAUTS DU RESTIC",
    "codePostal": "29200",
    "prix": 359494,
    "surface": 124,
    "surfaceCarrez": null,
    "pieces": 6,
    "lat": 48.429893,
    "lon": -4.491251,
    "nbLots": 1,
    "prixM2": 2899,
    "surfaceAffichee": 124
  },
  {
    "id": "2024-20240220-000001-138000",
    "date": "2024-02-20",
    "type": "Maison",
    "adresse": "16 RUE DE KEROUDOT",
    "codePostal": "29200",
    "prix": 138000,
    "surface": 87,
    "surfaceCarrez": null,
    "pieces": 5,
    "lat": 48.380603,
    "lon": -4.525778,
    "nbLots": 1,
    "prixM2": 1586,
    "surfaceAffichee": 87
  },
  {
    "id": "2024-20240209-000001-80000",
    "date": "2024-02-09",
    "type": "Appartement",
    "adresse": "9 RUE FRANCOIS CORDON",
    "codePostal": "29200",
    "prix": 80000,
    "surface": 43,
    "surfaceCarrez": null,
    "pieces": 3,
    "lat": 48.380402,
    "lon": -4.535893,
    "nbLots": 4,
    "prixM2": 1860,
    "surfaceAffichee": 43
  },
  {
    "id": "2024-20240212-000001-148000",
    "date": "2024-02-12",
    "type": "Appartement",
    "adresse": "6 RUE VICTOR COUSIN",
    "codePostal": "29200",
    "prix": 148000,
    "surface": 89,
    "surfaceCarrez": 179.2,
    "pieces": 5,
    "lat": 48.37716,
    "lon": -4.536236,
    "nbLots": 1,
    "prixM2": 826,
    "surfaceAffichee": 179.2
  },
  {
    "id": "2024-20240215-000001-103000",
    "date": "2024-02-15",
    "type": "Appartement",
    "adresse": "7 RUE DU TINDUFF",
    "codePostal": "29200",
    "prix": 103000,
    "surface": 68,
    "surfaceCarrez": 134.52,
    "pieces": 4,
    "lat": 48.404539,
    "lon": -4.463115,
    "nbLots": 1,
    "prixM2": 766,
    "surfaceAffichee": 134.52
  },
  {
    "id": "2024-20240209-000001-133000",
    "date": "2024-02-09",
    "type": "Appartement",
    "adresse": "43 RUE VAUBAN",
    "codePostal": "29200",
    "prix": 133000,
    "surface": 72,
    "surfaceCarrez": 142.54,
    "pieces": 3,
    "lat": 48.385097,
    "lon": -4.501,
    "nbLots": 1,
    "prixM2": 933,
    "surfaceAffichee": 142.54
  },
  {
    "id": "2024-20240209-000001-255000",
    "date": "2024-02-09",
    "type": "Maison",
    "adresse": "79 RUE DE KERMARIA",
    "codePostal": "29200",
    "prix": 255000,
    "surface": 113,
    "surfaceCarrez": null,
    "pieces": 6,
    "lat": 48.417424,
    "lon": -4.480559,
    "nbLots": 1,
    "prixM2": 2257,
    "surfaceAffichee": 113
  },
  {
    "id": "2024-20240131-000001-220000",
    "date": "2024-01-31",
    "type": "Maison",
    "adresse": "93 B RTE DES QUATRE POMPES",
    "codePostal": "29200",
    "prix": 220000,
    "surface": 77,
    "surfaceCarrez": null,
    "pieces": 4,
    "lat": 48.373064,
    "lon": -4.531779,
    "nbLots": 1,
    "prixM2": 2857,
    "surfaceAffichee": 77
  },
  {
    "id": "2024-20240126-000001-135500",
    "date": "2024-01-26",
    "type": "Appartement",
    "adresse": "2 RUE DU GATINAIS",
    "codePostal": "29200",
    "prix": 135500,
    "surface": 76,
    "surfaceCarrez": 314.12,
    "pieces": 3,
    "lat": 48.40311,
    "lon": -4.515559,
    "nbLots": 2,
    "prixM2": 431,
    "surfaceAffichee": 314.12
  },
  {
    "id": "2024-20240209-000001-315000",
    "date": "2024-02-09",
    "type": "Maison",
    "adresse": "21 B RUE KERUSCUN",
    "codePostal": "29200",
    "prix": 315000,
    "surface": 143,
    "surfaceCarrez": null,
    "pieces": 6,
    "lat": 48.396577,
    "lon": -4.472108,
    "nbLots": 1,
    "prixM2": 2203,
    "surfaceAffichee": 143
  },
  {
    "id": "2024-20240215-000001-203000",
    "date": "2024-02-15",
    "type": "Maison",
    "adresse": "18 RUE AMPERE",
    "codePostal": "29200",
    "prix": 203000,
    "surface": 72,
    "surfaceCarrez": null,
    "pieces": 5,
    "lat": 48.379612,
    "lon": -4.512897,
    "nbLots": 1,
    "prixM2": 2819,
    "surfaceAffichee": 72
  },
  {
    "id": "2024-20240209-000001-57000",
    "date": "2024-02-09",
    "type": "Appartement",
    "adresse": "75 RUE DU GUELMEUR",
    "codePostal": "29200",
    "prix": 57000,
    "surface": 36,
    "surfaceCarrez": 68.06,
    "pieces": 1,
    "lat": 48.394955,
    "lon": -4.457836,
    "nbLots": 2,
    "prixM2": 837,
    "surfaceAffichee": 68.06
  },
  {
    "id": "2024-20240215-000001-59000",
    "date": "2024-02-15",
    "type": "Appartement",
    "adresse": "9001 RUE PABLO NERUDA",
    "codePostal": "29200",
    "prix": 59000,
    "surface": 28,
    "surfaceCarrez": null,
    "pieces": 1,
    "lat": 48.39173,
    "lon": -4.522666,
    "nbLots": 2,
    "prixM2": 2107,
    "surfaceAffichee": 28
  },
  {
    "id": "2024-20240214-000001-46100",
    "date": "2024-02-14",
    "type": "Appartement",
    "adresse": "128 RUE JEAN JAURES",
    "codePostal": "29200",
    "prix": 46100,
    "surface": 18,
    "surfaceCarrez": 37.02,
    "pieces": 1,
    "lat": 48.39582,
    "lon": -4.477579,
    "nbLots": 1,
    "prixM2": 1245,
    "surfaceAffichee": 37.02
  },
  {
    "id": "2024-20240221-000001-112500",
    "date": "2024-02-21",
    "type": "Appartement",
    "adresse": "1 RUE PAUL FORT",
    "codePostal": "29200",
    "prix": 112500,
    "surface": 82,
    "surfaceCarrez": null,
    "pieces": 5,
    "lat": 48.401062,
    "lon": -4.480628,
    "nbLots": 2,
    "prixM2": 1372,
    "surfaceAffichee": 82
  },
  {
    "id": "2024-20240129-000001-70000",
    "date": "2024-01-29",
    "type": "Appartement",
    "adresse": "5 RUE SURCOUF",
    "codePostal": "29200",
    "prix": 70000,
    "surface": 28,
    "surfaceCarrez": 30.01,
    "pieces": 1,
    "lat": 48.381211,
    "lon": -4.506874,
    "nbLots": 1,
    "prixM2": 2333,
    "surfaceAffichee": 30.01
  },
  {
    "id": "2024-20240215-000001-138000",
    "date": "2024-02-15",
    "type": "Appartement",
    "adresse": "4 RUE VILLIERS DE L'ISLE ADAM",
    "codePostal": "29200",
    "prix": 138000,
    "surface": 72,
    "surfaceCarrez": 145.98,
    "pieces": 3,
    "lat": 48.392525,
    "lon": -4.465124,
    "nbLots": 1,
    "prixM2": 945,
    "surfaceAffichee": 145.98
  },
  {
    "id": "2024-20240216-000001-94000",
    "date": "2024-02-16",
    "type": "Appartement",
    "adresse": "6 RUE DE LESNEVEN",
    "codePostal": "29200",
    "prix": 94000,
    "surface": 70,
    "surfaceCarrez": null,
    "pieces": 3,
    "lat": 48.407365,
    "lon": -4.521438,
    "nbLots": 2,
    "prixM2": 1343,
    "surfaceAffichee": 70
  },
  {
    "id": "2024-20240202-000001-16500",
    "date": "2024-02-02",
    "type": "Dépendance",
    "adresse": "30 RUE EDOUARD CORBIERE",
    "codePostal": "29200",
    "prix": 16500,
    "surface": null,
    "surfaceCarrez": null,
    "pieces": null,
    "lat": 48.39187,
    "lon": -4.473666,
    "nbLots": 1,
    "prixM2": null,
    "surfaceAffichee": null
  },
  {
    "id": "2024-20240201-000001-100000",
    "date": "2024-02-01",
    "type": "Appartement",
    "adresse": "5 BD COMMANDANT MOUCHOTTE",
    "codePostal": "29200",
    "prix": 100000,
    "surface": 69,
    "surfaceCarrez": 133.36,
    "pieces": 3,
    "lat": 48.384972,
    "lon": -4.505662,
    "nbLots": 2,
    "prixM2": 750,
    "surfaceAffichee": 133.36
  },
  {
    "id": "2024-20240216-000001-287000",
    "date": "2024-02-16",
    "type": "Maison",
    "adresse": "14 RUE DE GUERNEVEZ",
    "codePostal": "29200",
    "prix": 287000,
    "surface": 66,
    "surfaceCarrez": null,
    "pieces": 3,
    "lat": 48.390171,
    "lon": -4.462899,
    "nbLots": 1,
    "prixM2": 4348,
    "surfaceAffichee": 66
  },
  {
    "id": "2024-20240213-000001-145650",
    "date": "2024-02-13",
    "type": "Appartement",
    "adresse": "140 RUE ANATOLE FRANCE",
    "codePostal": "29200",
    "prix": 145650,
    "surface": 66,
    "surfaceCarrez": null,
    "pieces": 3,
    "lat": 48.38293,
    "lon": -4.520398,
    "nbLots": 2,
    "prixM2": 2207,
    "surfaceAffichee": 66
  },
  {
    "id": "2024-20240131-000001-148520",
    "date": "2024-01-31",
    "type": "Appartement",
    "adresse": "8 RUE DU DUC D AUMALE",
    "codePostal": "29200",
    "prix": 148520,
    "surface": 105,
    "surfaceCarrez": 211.58,
    "pieces": 6,
    "lat": 48.400763,
    "lon": -4.509082,
    "nbLots": 2,
    "prixM2": 702,
    "surfaceAffichee": 211.58
  },
  {
    "id": "2024-20240202-000001-107150",
    "date": "2024-02-02",
    "type": "Appartement",
    "adresse": "74 RUE YVES GILOUX",
    "codePostal": "29200",
    "prix": 107150,
    "surface": 90,
    "surfaceCarrez": null,
    "pieces": 3,
    "lat": 48.414988,
    "lon": -4.484455,
    "nbLots": 4,
    "prixM2": 1191,
    "surfaceAffichee": 90
  },
  {
    "id": "2024-20240216-000001-130000",
    "date": "2024-02-16",
    "type": "Appartement",
    "adresse": "7 RUE CLEMENT MAROT",
    "codePostal": "29200",
    "prix": 130000,
    "surface": 67,
    "surfaceCarrez": 134.48,
    "pieces": 4,
    "lat": 48.40005,
    "lon": -4.484692,
    "nbLots": 1,
    "prixM2": 967,
    "surfaceAffichee": 134.48
  },
  {
    "id": "2024-20240129-000001-79000",
    "date": "2024-01-29",
    "type": "Appartement",
    "adresse": "29 RUE CUIRASSE BRETAGNE",
    "codePostal": "29200",
    "prix": 79000,
    "surface": 30,
    "surfaceCarrez": 30.1,
    "pieces": 1,
    "lat": 48.40692,
    "lon": -4.495006,
    "nbLots": 1,
    "prixM2": 2625,
    "surfaceAffichee": 30.1
  },
  {
    "id": "2024-20240130-000001-156000",
    "date": "2024-01-30",
    "type": "Appartement",
    "adresse": "12 RUE GENERAL MARCHAND",
    "codePostal": "29200",
    "prix": 156000,
    "surface": 80,
    "surfaceCarrez": 177.1,
    "pieces": 5,
    "lat": 48.386793,
    "lon": -4.512212,
    "nbLots": 2,
    "prixM2": 881,
    "surfaceAffichee": 177.1
  },
  {
    "id": "2024-20240215-000001-149493",
    "date": "2024-02-15",
    "type": "Appartement",
    "adresse": "14 RUE JEAN-FRANCOIS TARTU",
    "codePostal": "29200",
    "prix": 149493,
    "surface": 73,
    "surfaceCarrez": null,
    "pieces": 3,
    "lat": 48.383146,
    "lon": -4.526181,
    "nbLots": 2,
    "prixM2": 2048,
    "surfaceAffichee": 73
  },
  {
    "id": "2024-20240213-000001-126000",
    "date": "2024-02-13",
    "type": "Appartement",
    "adresse": "2 RUE DE KERORIOU",
    "codePostal": "29200",
    "prix": 126000,
    "surface": 50,
    "surfaceCarrez": 93.94,
    "pieces": 3,
    "lat": 48.390226,
    "lon": -4.480019,
    "nbLots": 1,
    "prixM2": 1341,
    "surfaceAffichee": 93.94
  },
  {
    "id": "2024-20240213-000001-149500",
    "date": "2024-02-13",
    "type": "Appartement",
    "adresse": "19 RUE KERABECAM",
    "codePostal": "29200",
    "prix": 149500,
    "surface": 49,
    "surfaceCarrez": 54.25,
    "pieces": 3,
    "lat": 48.392676,
    "lon": -4.485043,
    "nbLots": 2,
    "prixM2": 2756,
    "surfaceAffichee": 54.25
  },
  {
    "id": "2024-20240214-000001-305000",
    "date": "2024-02-14",
    "type": "Maison",
    "adresse": "14 RUE AUGUSTE COMTE",
    "codePostal": "29200",
    "prix": 305000,
    "surface": 149,
    "surfaceCarrez": null,
    "pieces": 5,
    "lat": 48.377829,
    "lon": -4.537246,
    "nbLots": 1,
    "prixM2": 2047,
    "surfaceAffichee": 149
  },
  {
    "id": "2024-20240213-000001-168709",
    "date": "2024-02-13",
    "type": "Appartement",
    "adresse": "9405 RUE MAX FAUCHON",
    "codePostal": "29200",
    "prix": 168709,
    "surface": 79,
    "surfaceCarrez": 162.12,
    "pieces": 4,
    "lat": 48.407304,
    "lon": -4.487159,
    "nbLots": 2,
    "prixM2": 1041,
    "surfaceAffichee": 162.12
  },
  {
    "id": "2024-20240220-000001-85000",
    "date": "2024-02-20",
    "type": "Appartement",
    "adresse": "7 RUE HENRI MOREAU",
    "codePostal": "29200",
    "prix": 85000,
    "surface": 70,
    "surfaceCarrez": 184.26,
    "pieces": 3,
    "lat": 48.393967,
    "lon": -4.479168,
    "nbLots": 1,
    "prixM2": 461,
    "surfaceAffichee": 184.26
  },
  {
    "id": "2024-20240221-000001-124600",
    "date": "2024-02-21",
    "type": "Appartement",
    "adresse": "65 RUE DE PARIS",
    "codePostal": "29200",
    "prix": 124600,
    "surface": 75,
    "surfaceCarrez": 151.32,
    "pieces": 4,
    "lat": 48.407046,
    "lon": -4.460225,
    "nbLots": 2,
    "prixM2": 823,
    "surfaceAffichee": 151.32
  },
  {
    "id": "2024-20240220-000001-214000",
    "date": "2024-02-20",
    "type": "Maison",
    "adresse": "11 RUE VALENTIN HAUY",
    "codePostal": "29200",
    "prix": 214000,
    "surface": 98,
    "surfaceCarrez": null,
    "pieces": 4,
    "lat": 48.382422,
    "lon": -4.519418,
    "nbLots": 1,
    "prixM2": 2184,
    "surfaceAffichee": 98
  },
  {
    "id": "2024-20240216-000001-138000",
    "date": "2024-02-16",
    "type": "Appartement",
    "adresse": "11 RUE VICTOR ROSSEL",
    "codePostal": "29200",
    "prix": 138000,
    "surface": 68,
    "surfaceCarrez": 67.02,
    "pieces": 3,
    "lat": 48.387341,
    "lon": -4.501896,
    "nbLots": 1,
    "prixM2": 2059,
    "surfaceAffichee": 67.02
  },
  {
    "id": "2024-20240216-000001-76000",
    "date": "2024-02-16",
    "type": "Appartement",
    "adresse": "2 RUE BERNARD SCHEIDHAUER",
    "codePostal": "29200",
    "prix": 76000,
    "surface": 65,
    "surfaceCarrez": 196.44,
    "pieces": 3,
    "lat": 48.393661,
    "lon": -4.492982,
    "nbLots": 1,
    "prixM2": 387,
    "surfaceAffichee": 196.44
  },
  {
    "id": "2024-20240212-000001-128250",
    "date": "2024-02-12",
    "type": "Appartement",
    "adresse": "9 RUE SAINT-EXUPERY",
    "codePostal": "29200",
    "prix": 128250,
    "surface": 54,
    "surfaceCarrez": 106.36,
    "pieces": 3,
    "lat": 48.383269,
    "lon": -4.503564,
    "nbLots": 1,
    "prixM2": 1206,
    "surfaceAffichee": 106.36
  },
  {
    "id": "2024-20240126-000001-104907",
    "date": "2024-01-26",
    "type": "Appartement",
    "adresse": "14 CITE MONTGOLFIER",
    "codePostal": "29200",
    "prix": 104907,
    "surface": 58,
    "surfaceCarrez": null,
    "pieces": 3,
    "lat": 48.3894,
    "lon": -4.505752,
    "nbLots": 2,
    "prixM2": 1809,
    "surfaceAffichee": 58
  },
  {
    "id": "2024-20240223-000001-127000",
    "date": "2024-02-23",
    "type": "Appartement",
    "adresse": "65 RUE PIERRE LOTI",
    "codePostal": "29200",
    "prix": 127000,
    "surface": 71,
    "surfaceCarrez": 144.54,
    "pieces": 4,
    "lat": 48.38295,
    "lon": -4.508401,
    "nbLots": 2,
    "prixM2": 879,
    "surfaceAffichee": 144.54
  },
  {
    "id": "2024-20240214-000001-227000",
    "date": "2024-02-14",
    "type": "Maison",
    "adresse": "3 RUE PASCAL",
    "codePostal": "29200",
    "prix": 227000,
    "surface": 80,
    "surfaceCarrez": null,
    "pieces": 5,
    "lat": 48.391271,
    "lon": -4.472649,
    "nbLots": 1,
    "prixM2": 2838,
    "surfaceAffichee": 80
  },
  {
    "id": "2024-20240215-000001-175000",
    "date": "2024-02-15",
    "type": "Appartement",
    "adresse": "57 RTE DE LA CORNICHE",
    "codePostal": "29200",
    "prix": 175000,
    "surface": 85,
    "surfaceCarrez": null,
    "pieces": 5,
    "lat": 48.378976,
    "lon": -4.507509,
    "nbLots": 1,
    "prixM2": 2059,
    "surfaceAffichee": 85
  },
  {
    "id": "2024-20240214-000001-199000",
    "date": "2024-02-14",
    "type": "Appartement",
    "adresse": "5 RUE PIERRE PUGET",
    "codePostal": "29200",
    "prix": 199000,
    "surface": 55,
    "surfaceCarrez": null,
    "pieces": 3,
    "lat": 48.391323,
    "lon": -4.49311,
    "nbLots": 2,
    "prixM2": 3618,
    "surfaceAffichee": 55
  },
  {
    "id": "2024-20240216-000001-240283",
    "date": "2024-02-16",
    "type": "Maison",
    "adresse": "5 RUE MARCEL DUFOSSET",
    "codePostal": "29200",
    "prix": 240283,
    "surface": 67,
    "surfaceCarrez": null,
    "pieces": 4,
    "lat": 48.410046,
    "lon": -4.466496,
    "nbLots": 1,
    "prixM2": 3586,
    "surfaceAffichee": 67
  },
  {
    "id": "2024-20240207-000001-125000",
    "date": "2024-02-07",
    "type": "Maison",
    "adresse": "15 RUE DE LA PAIX",
    "codePostal": "29200",
    "prix": 125000,
    "surface": 67,
    "surfaceCarrez": null,
    "pieces": 4,
    "lat": 48.385443,
    "lon": -4.520752,
    "nbLots": 1,
    "prixM2": 1866,
    "surfaceAffichee": 67
  },
  {
    "id": "2024-20240216-000001-168000",
    "date": "2024-02-16",
    "type": "Appartement",
    "adresse": "4 B RUE YVES COLLET",
    "codePostal": "29200",
    "prix": 168000,
    "surface": 68,
    "surfaceCarrez": 136.86,
    "pieces": 3,
    "lat": 48.390488,
    "lon": -4.482235,
    "nbLots": 1,
    "prixM2": 1228,
    "surfaceAffichee": 136.86
  },
  {
    "id": "2024-20240213-000001-240700",
    "date": "2024-02-13",
    "type": "Appartement",
    "adresse": "32 RUE KERJAOUEN",
    "codePostal": "29200",
    "prix": 240700,
    "surface": 105,
    "surfaceCarrez": null,
    "pieces": 6,
    "lat": 48.395688,
    "lon": -4.470604,
    "nbLots": 1,
    "prixM2": 2292,
    "surfaceAffichee": 105
  },
  {
    "id": "2024-20240209-000001-25000",
    "date": "2024-02-09",
    "type": "Dépendance",
    "adresse": "5 RUE CUIRASSE BRETAGNE",
    "codePostal": "29200",
    "prix": 25000,
    "surface": null,
    "surfaceCarrez": null,
    "pieces": null,
    "lat": 48.405149,
    "lon": -4.496475,
    "nbLots": 1,
    "prixM2": null,
    "surfaceAffichee": null
  },
  {
    "id": "2024-20240213-000001-163000",
    "date": "2024-02-13",
    "type": "Maison",
    "adresse": "114 AV DE L ECOLE NAVALE",
    "codePostal": "29200",
    "prix": 163000,
    "surface": 80,
    "surfaceCarrez": null,
    "pieces": 4,
    "lat": 48.380698,
    "lon": -4.527184,
    "nbLots": 1,
    "prixM2": 2038,
    "surfaceAffichee": 80
  },
  {
    "id": "2024-20240213-000001-196950",
    "date": "2024-02-13",
    "type": "Appartement",
    "adresse": "46 BD COMMANDANT MOUCHOTTE",
    "codePostal": "29200",
    "prix": 196950,
    "surface": 93,
    "surfaceCarrez": 191.04,
    "pieces": 5,
    "lat": 48.387385,
    "lon": -4.508191,
    "nbLots": 2,
    "prixM2": 1031,
    "surfaceAffichee": 191.04
  },
  {
    "id": "2024-20240219-000001-311000",
    "date": "2024-02-19",
    "type": "Maison",
    "adresse": "25 RUE BRANLY",
    "codePostal": "29200",
    "prix": 311000,
    "surface": 133,
    "surfaceCarrez": null,
    "pieces": 5,
    "lat": 48.380451,
    "lon": -4.511854,
    "nbLots": 1,
    "prixM2": 2338,
    "surfaceAffichee": 133
  },
  {
    "id": "2024-20240215-000001-89000",
    "date": "2024-02-15",
    "type": "Appartement",
    "adresse": "12 RUE DE VENDEE",
    "codePostal": "29200",
    "prix": 89000,
    "surface": 72,
    "surfaceCarrez": 147.2,
    "pieces": 4,
    "lat": 48.40436,
    "lon": -4.513198,
    "nbLots": 2,
    "prixM2": 605,
    "surfaceAffichee": 147.2
  },
  {
    "id": "2024-20240202-000001-158994",
    "date": "2024-02-02",
    "type": "Appartement",
    "adresse": "65 RUE DE LANROZ",
    "codePostal": "29200",
    "prix": 158994,
    "surface": 68,
    "surfaceCarrez": 67.12,
    "pieces": 3,
    "lat": 48.419892,
    "lon": -4.49355,
    "nbLots": 1,
    "prixM2": 2369,
    "surfaceAffichee": 67.12
  },
  {
    "id": "2024-20240202-000001-105350",
    "date": "2024-02-02",
    "type": "Appartement",
    "adresse": "31 RUE KERIVIN",
    "codePostal": "29200",
    "prix": 105350,
    "surface": 41,
    "surfaceCarrez": null,
    "pieces": 2,
    "lat": 48.395309,
    "lon": -4.472474,
    "nbLots": 2,
    "prixM2": 2570,
    "surfaceAffichee": 41
  },
  {
    "id": "2024-20240214-000001-205000",
    "date": "2024-02-14",
    "type": "Appartement",
    "adresse": "16 RUE MONGE",
    "codePostal": "29200",
    "prix": 205000,
    "surface": 97,
    "surfaceCarrez": null,
    "pieces": 4,
    "lat": 48.383975,
    "lon": -4.491214,
    "nbLots": 1,
    "prixM2": 2113,
    "surfaceAffichee": 97
  },
  {
    "id": "2024-20240209-000001-175000",
    "date": "2024-02-09",
    "type": "Appartement",
    "adresse": "3 RUE TRAVERSE DE L EGLISE",
    "codePostal": "29200",
    "prix": 175000,
    "surface": 51,
    "surfaceCarrez": 114,
    "pieces": 3,
    "lat": 48.382375,
    "lon": -4.498963,
    "nbLots": 1,
    "prixM2": 1535,
    "surfaceAffichee": 114
  },
  {
    "id": "2024-20240216-000001-195000",
    "date": "2024-02-16",
    "type": "Maison",
    "adresse": "6 RUE JULES FAVRE",
    "codePostal": "29200",
    "prix": 195000,
    "surface": 77,
    "surfaceCarrez": null,
    "pieces": 4,
    "lat": 48.404539,
    "lon": -4.475336,
    "nbLots": 1,
    "prixM2": 2532,
    "surfaceAffichee": 77
  },
  {
    "id": "2024-20240220-000001-110000",
    "date": "2024-02-20",
    "type": "Maison",
    "adresse": "4 RUE EMILE GUYADER",
    "codePostal": "29200",
    "prix": 110000,
    "surface": 31,
    "surfaceCarrez": null,
    "pieces": 4,
    "lat": 48.381066,
    "lon": -4.517961,
    "nbLots": 1,
    "prixM2": 3548,
    "surfaceAffichee": 31
  },
  {
    "id": "2024-20240221-000001-8000",
    "date": "2024-02-21",
    "type": "Dépendance",
    "adresse": "32 RUE MAL FRANCHET D ESPEREY",
    "codePostal": "29200",
    "prix": 8000,
    "surface": null,
    "surfaceCarrez": null,
    "pieces": null,
    "lat": 48.382637,
    "lon": -4.508712,
    "nbLots": 1,
    "prixM2": null,
    "surfaceAffichee": null
  },
  {
    "id": "2024-20240220-000001-228000",
    "date": "2024-02-20",
    "type": "Appartement",
    "adresse": "2 RUE JULES MICHELET",
    "codePostal": "29200",
    "prix": 228000,
    "surface": 74,
    "surfaceCarrez": null,
    "pieces": 3,
    "lat": 48.387781,
    "lon": -4.492893,
    "nbLots": 2,
    "prixM2": 3081,
    "surfaceAffichee": 74
  },
  {
    "id": "2024-20240221-000001-50000",
    "date": "2024-02-21",
    "type": "Appartement",
    "adresse": "5 RUE LAURENT LEGENDRE",
    "codePostal": "29200",
    "prix": 50000,
    "surface": 19,
    "surfaceCarrez": null,
    "pieces": 1,
    "lat": 48.387731,
    "lon": -4.501992,
    "nbLots": 2,
    "prixM2": 2632,
    "surfaceAffichee": 19
  },
  {
    "id": "2024-20240220-000001-53000",
    "date": "2024-02-20",
    "type": "Appartement",
    "adresse": "1 RUE QUR MAITRE BONDON",
    "codePostal": "29200",
    "prix": 53000,
    "surface": 20,
    "surfaceCarrez": null,
    "pieces": 1,
    "lat": 48.385511,
    "lon": -4.498638,
    "nbLots": 1,
    "prixM2": 2650,
    "surfaceAffichee": 20
  },
  {
    "id": "2024-20240209-000001-149640",
    "date": "2024-02-09",
    "type": "Appartement",
    "adresse": "26 RUE DE VALMY",
    "codePostal": "29200",
    "prix": 149640,
    "surface": 68,
    "surfaceCarrez": null,
    "pieces": 4,
    "lat": 48.400326,
    "lon": -4.466858,
    "nbLots": 1,
    "prixM2": 2201,
    "surfaceAffichee": 68
  },
  {
    "id": "2024-20240208-000001-135000",
    "date": "2024-02-08",
    "type": "Appartement",
    "adresse": "36 RUE PIERRE LOTI",
    "codePostal": "29200",
    "prix": 135000,
    "surface": 90,
    "surfaceCarrez": null,
    "pieces": 5,
    "lat": 48.382686,
    "lon": -4.506667,
    "nbLots": 1,
    "prixM2": 1500,
    "surfaceAffichee": 90
  },
  {
    "id": "2024-20240216-000001-144000",
    "date": "2024-02-16",
    "type": "Appartement",
    "adresse": "67 RTE DU VALY HIR",
    "codePostal": "29200",
    "prix": 144000,
    "surface": 95,
    "surfaceCarrez": 288.48,
    "pieces": 5,
    "lat": 48.385794,
    "lon": -4.529673,
    "nbLots": 2,
    "prixM2": 499,
    "surfaceAffichee": 288.48
  },
  {
    "id": "2024-20240223-000001-110000",
    "date": "2024-02-23",
    "type": "Appartement",
    "adresse": "8 RUE DE RENNES",
    "codePostal": "29200",
    "prix": 110000,
    "surface": 71,
    "surfaceCarrez": null,
    "pieces": 3,
    "lat": 48.409287,
    "lon": -4.517808,
    "nbLots": 2,
    "prixM2": 1549,
    "surfaceAffichee": 71
  },
  {
    "id": "2024-20240129-000001-103000",
    "date": "2024-01-29",
    "type": "Appartement",
    "adresse": "4 RUE DU BOURBONNAIS",
    "codePostal": "29200",
    "prix": 103000,
    "surface": 59,
    "surfaceCarrez": 119.38,
    "pieces": 3,
    "lat": 48.407228,
    "lon": -4.51222,
    "nbLots": 2,
    "prixM2": 863,
    "surfaceAffichee": 119.38
  },
  {
    "id": "2024-20240216-000001-290000",
    "date": "2024-02-16",
    "type": "Appartement",
    "adresse": "52 T RUE DE LA PORTE",
    "codePostal": "29200",
    "prix": 290000,
    "surface": 60,
    "surfaceCarrez": null,
    "pieces": 1,
    "lat": 48.384144,
    "lon": -4.501124,
    "nbLots": 1,
    "prixM2": 4833,
    "surfaceAffichee": 60
  },
  {
    "id": "2024-20240207-000001-220000",
    "date": "2024-02-07",
    "type": "Appartement",
    "adresse": "25 RUE DE GASTE",
    "codePostal": "29200",
    "prix": 220000,
    "surface": 98,
    "surfaceCarrez": null,
    "pieces": 5,
    "lat": 48.391051,
    "lon": -4.476873,
    "nbLots": 2,
    "prixM2": 2245,
    "surfaceAffichee": 98
  },
  {
    "id": "2024-20240208-000001-154600",
    "date": "2024-02-08",
    "type": "Appartement",
    "adresse": "10 RUE DU PETIT KERZU",
    "codePostal": "29200",
    "prix": 154600,
    "surface": 86,
    "surfaceCarrez": 250.32,
    "pieces": 3,
    "lat": 48.407841,
    "lon": -4.476989,
    "nbLots": 2,
    "prixM2": 618,
    "surfaceAffichee": 250.32
  },
  {
    "id": "2024-20240202-000001-11700",
    "date": "2024-02-02",
    "type": "Dépendance",
    "adresse": "2 RUE DU CAP DE VAISSEAU RENON",
    "codePostal": "29200",
    "prix": 11700,
    "surface": null,
    "surfaceCarrez": null,
    "pieces": null,
    "lat": 48.402575,
    "lon": -4.473214,
    "nbLots": 1,
    "prixM2": null,
    "surfaceAffichee": null
  },
  {
    "id": "2024-20240223-000001-133950",
    "date": "2024-02-23",
    "type": "Appartement",
    "adresse": "46 RUE DU GUILVINEC",
    "codePostal": "29200",
    "prix": 133950,
    "surface": 68,
    "surfaceCarrez": 140.44,
    "pieces": 4,
    "lat": 48.404461,
    "lon": -4.463651,
    "nbLots": 1,
    "prixM2": 954,
    "surfaceAffichee": 140.44
  },
  {
    "id": "2024-20240220-000001-144000",
    "date": "2024-02-20",
    "type": "Maison",
    "adresse": "3 RUE FRANKLIN",
    "codePostal": "29200",
    "prix": 144000,
    "surface": 108,
    "surfaceCarrez": null,
    "pieces": 4,
    "lat": 48.407966,
    "lon": -4.497005,
    "nbLots": 1,
    "prixM2": 1333,
    "surfaceAffichee": 108
  },
  {
    "id": "2024-20240214-000001-75262",
    "date": "2024-02-14",
    "type": "Appartement",
    "adresse": "105 RUE DU CAPITAINE GUYNEMER",
    "codePostal": "29200",
    "prix": 75262,
    "surface": 22,
    "surfaceCarrez": 22.37,
    "pieces": 1,
    "lat": 48.390454,
    "lon": -4.464296,
    "nbLots": 1,
    "prixM2": 3364,
    "surfaceAffichee": 22.37
  },
  {
    "id": "2024-20240205-000001-128000",
    "date": "2024-02-05",
    "type": "Appartement",
    "adresse": "32 RUE DE DOUARNENEZ",
    "codePostal": "29200",
    "prix": 128000,
    "surface": 64,
    "surfaceCarrez": 128.88,
    "pieces": 4,
    "lat": 48.404876,
    "lon": -4.460915,
    "nbLots": 2,
    "prixM2": 993,
    "surfaceAffichee": 128.88
  },
  {
    "id": "2024-20240221-000001-54000",
    "date": "2024-02-21",
    "type": "Appartement",
    "adresse": "93 RUE DE QUIMPER",
    "codePostal": "29200",
    "prix": 54000,
    "surface": 22,
    "surfaceCarrez": null,
    "pieces": 1,
    "lat": 48.401113,
    "lon": -4.454733,
    "nbLots": 2,
    "prixM2": 2455,
    "surfaceAffichee": 22
  },
  {
    "id": "2024-20240223-000001-120950",
    "date": "2024-02-23",
    "type": "Appartement",
    "adresse": "1 SQ MENEZ PAUL",
    "codePostal": "29200",
    "prix": 120950,
    "surface": 64,
    "surfaceCarrez": null,
    "pieces": 4,
    "lat": 48.406411,
    "lon": -4.468418,
    "nbLots": 1,
    "prixM2": 1890,
    "surfaceAffichee": 64
  },
  {
    "id": "2024-20240215-000001-110000",
    "date": "2024-02-15",
    "type": "Appartement",
    "adresse": "2 RUE GASTON VIARON",
    "codePostal": "29200",
    "prix": 110000,
    "surface": 94,
    "surfaceCarrez": 284.58,
    "pieces": 5,
    "lat": 48.384722,
    "lon": -4.527013,
    "nbLots": 2,
    "prixM2": 387,
    "surfaceAffichee": 284.58
  },
  {
    "id": "2024-20240220-000001-128100",
    "date": "2024-02-20",
    "type": "Appartement",
    "adresse": "52 RUE PIERRE RIQUET",
    "codePostal": "29200",
    "prix": 128100,
    "surface": 72,
    "surfaceCarrez": 165.84,
    "pieces": 3,
    "lat": 48.403323,
    "lon": -4.487077,
    "nbLots": 2,
    "prixM2": 772,
    "surfaceAffichee": 165.84
  },
  {
    "id": "2024-20240222-000001-90228",
    "date": "2024-02-22",
    "type": "Appartement",
    "adresse": "6 RUE PIERRE TREPOS",
    "codePostal": "29200",
    "prix": 90228,
    "surface": 68,
    "surfaceCarrez": 136.38,
    "pieces": 3,
    "lat": 48.404417,
    "lon": -4.506142,
    "nbLots": 1,
    "prixM2": 662,
    "surfaceAffichee": 136.38
  },
  {
    "id": "2024-20240221-000001-465500",
    "date": "2024-02-21",
    "type": "Maison",
    "adresse": "7 RUE KERAMPERE",
    "codePostal": "29200",
    "prix": 465500,
    "surface": 147,
    "surfaceCarrez": null,
    "pieces": 7,
    "lat": 48.398467,
    "lon": -4.44966,
    "nbLots": 1,
    "prixM2": 3167,
    "surfaceAffichee": 147
  },
  {
    "id": "2024-20240221-000001-130500",
    "date": "2024-02-21",
    "type": "Appartement",
    "adresse": "5 RUE PIERRE LOTI",
    "codePostal": "29200",
    "prix": 130500,
    "surface": 81,
    "surfaceCarrez": null,
    "pieces": 5,
    "lat": 48.382592,
    "lon": -4.503802,
    "nbLots": 2,
    "prixM2": 1611,
    "surfaceAffichee": 81
  },
  {
    "id": "2024-20240222-000001-126000",
    "date": "2024-02-22",
    "type": "Appartement",
    "adresse": "30 RUE COAT AR GUEVEN",
    "codePostal": "29200",
    "prix": 126000,
    "surface": 48,
    "surfaceCarrez": null,
    "pieces": 2,
    "lat": 48.394129,
    "lon": -4.48374,
    "nbLots": 2,
    "prixM2": 2625,
    "surfaceAffichee": 48
  },
  {
    "id": "2024-20240215-000001-45000",
    "date": "2024-02-15",
    "type": "Appartement",
    "adresse": "15 AV DE TARENTE",
    "codePostal": "29200",
    "prix": 45000,
    "surface": 50,
    "surfaceCarrez": 100.12,
    "pieces": 2,
    "lat": 48.405369,
    "lon": -4.510046,
    "nbLots": 2,
    "prixM2": 449,
    "surfaceAffichee": 100.12
  },
  {
    "id": "2024-20240304-000001-153000",
    "date": "2024-03-04",
    "type": "Appartement",
    "adresse": "5 RUE DU DOCTEUR BOUQUET",
    "codePostal": "29200",
    "prix": 153000,
    "surface": 101,
    "surfaceCarrez": null,
    "pieces": 5,
    "lat": 48.401256,
    "lon": -4.456985,
    "nbLots": 2,
    "prixM2": 1515,
    "surfaceAffichee": 101
  },